ID,HOBBS_N,KNOWN AS,PLACE,REGION,COUNTRY,LAT,LONG,Loc_Q,D_TPQ,START_D,START_Q,END_D,END_Q,DATE_EP,DATE_LP,YEAR_DISC_START,YEAR_DISC_END,YEAR_DISC_Q,YEAR_DISC_LITERAL,EGW_MIN,EGW_MAX,EGW_Q,AV_Literal,AV_DENOM1,AV_COUNT1,AV_COUNT_Q1,AV_DENOM2,AV_COUNT2,AV_COUNT_Q2,AV_DENOM3,AV_COUNT3,AV_COUNT_Q3,AV_COUNT_TOT,AV_COUNT_TOTAL_Q,AV_C_WT_MIN,AV_C_WT_MAX,AV_C_WT_Q,AR_LITERAL,AR_DENOM1,AR_COINS1,AR_COINS_Q1,AR_DENOM2,AR_COINS2,AR_COINS_Q2,AR_DENOM3,AR_COINS3,AR_COINS_Q3,AR_COUNT_TOT,AR_COUNT_TOTAL_Q,AR_C_WT_MIN,AR_C_WT_MAX,AR_C_WT_Q,AE_COINS,NON_C_MIN,NON_C_MAX,NON_C_Q,METAL_MIN,METAL_MAX,NON_COIN,COMMENT,DISC_CIRC,DISPOSITION,REFERENCE
1072,1387,Brestov,Brestov,Mukachevski,Ukraine,48.42903,22.70582,,364,117,,394,,117/38,364/94,,,,,155.5,155.5,ca. +,"A, Q, S: 18, 1, 5",A,18,,Q,1,,S,5,,24,,155.45,155.45,ca.,,,,,,,,,,,,,0,0, ,,,,+,155.45,155.45,The find also included some small AV ingots and an AV chain fragment.,"Sabina (wife of Hadrian) to Valens.  Three coins were pierced, 10 had suspension loops",,Budapest National Museum,"Kropotkin 1962, 222, number 398"
207,1390,Bruzgovo,Bruzgovo,Khaskovo,Bulgaria,41.934091,25.558834,,364,284,taq,394,,pre-284,364/94,,,,,11.7,11.7, ,"A, S: 1, 1",A,1,,S,1,,,,,2,,11.7,11.7, ,,,,,,,,,,,,,0,0, ,,,,,11.7,11.7,,1 aureus of Probus; 1 solidus of Procopius. Terminus post quem ca. 365,,dispersed,"CH VI.181; Bland 1997, table 4, number 109"
151,1607,Belmonte,Belmonte,Castelo Branco,Portugal,40.405884,-7.329758,,411,161,?,425,,161/80?,411/25,,,,,11.7,11.7, ,"A, S: 1, 1",A,1,,S,1,,,,,2,,11.65,11.65, ,,,,,,,,,,,,,0,0, ,,,,,11.65,11.65,,"an uncertain number of coins, including 1 aureus of Marcus Aurelius and 1 solidus of Honorius",,,"Bost et al. 1992, 41, number 23"
1491,1359,Nielles-lès-Calais,Nielles-lès-Calais,,France,50.90691,1.830028,,348,296,,363,,296/318,348/63,1639,1639,,,18.7,18.7,ca.,"A, S: 1, 3",A,1,,S,3,,,,,4,,18.65,18.65,ca.,,,,,,,,,,,,,0,0, ,,,,,18.65,18.65,,"Maximinus Herculus (aur.), Magnentius; Terminus post quem ca. 350/53",,,TAF II: 56; Guest 1994
747,1348,Ljubljana I,Ljubljana (Emona),,Slovenia,46.047522,14.545544,,348,310,,363,,310/13,348/63,1910,1910,,,403.4,403.8, ,"A, S: 1, 49",A,1,,S,49,,,,,50,,225.62,225.62, ,Si: c.9,Si,9,ca.,,,,,,,9,,19.2,27.6,ca.,,2647.24,2647.24,,2892.06,2900.46,"also 9 AR ingots: 1. 15.6cm, 376.10g; 13.8cm, 356.82g; 15.9cm, 357.89g; 14.5cm, 390.24g; 15.6cm, 308.53g; 15cm, 383.75g; 15.4cm, 208.90g; 15.1cm, 187.78g; 12cm, 77.23g. Total weight of ingots: 2647.24g.",AV weight actual. Bland has Terminus post quem ca. 350.,found on excavs. of Insula IV with pot,dispersed,"Schmid 1913; Mirnik 1981, number 292; Duncan 1993; FMRSl I.155/2; Guest 1994; Bland 1997, table 4, number 87; Wiegels 2003, numbers 69-77"
1858,1308,Holyhead,Holyhead,Gwynedd,Great Britain,53.309529,-4.633516,,330,284,,348,,284,330/48,,,,,54,59.9, ,"A, S: 12",A,,,S,,,,,,12,,54,59.9, ,,,,,,,,,,,,,0,0, ,,,,,54,59.9,,Terminus post quem ca. 337,,,"Arch. Camb. 1868, 396; Bland 1997, table 4, number 1; Robertson 2000, number 1066"
1077,1326,Chinadiyevo,Chinadiyevo,Svalyavski,Ukraine,48.490899,22.809677,,348,138,,363,,138/61,348/63,,,,,18.8,18.8, ,"A, S: 2, 1",A,2,,S,1,,,,,3,,18.75,18.75, ,,,,,,,,,,,,,0,0, ,,,,,18.75,18.75,,"Antoninus Pius, S. Severus (both with loops), Julian",,,"Kropotkin 1962, 226, number 428"
1786,1375,Water Newton I,Water Newton,Cambridgeshire,Great Britain,52.560206,-0.36711,,348,300,,363,,early 4th. century AD,348/63,1974,1974,,,201.4,201.4, ,"A, S: 4, 26",A,4,,S,26,,,,,30,,137.3,137.3,ca.,,,,,,,,,,,,,0,0, ,,1100.3,1100.3,,1237.6,1237.6,"1. Pottery vessel: lidded. 2. AE bowl:  thin sheet, handles found inside. 3. AR plate: folded. weight: 642g. 4. AR plate: folded. weight: 321g. 5. AV coins. 6. Linen lined leather purse. AV: 137.3g AR: 963.0g","Coins from Constantine to Constantius II. For more details see Painter, 1977 & Carson & Burnett 1979",found in a field 200 metres from the A1.,The British Museum,"Durobrivae 3, 1975, 10-12; Kent & Painter 1977; Painter 1977; Carson & Burnett 1979; Archer 1979, 62, number 59; Bland 1997, table 4, number 2"
1530,1540,Metelin,Metelin,,Poland,51.039603,22.045964,,395,222,,410,,222/35,395/410,,,,,34.9,39, ,"A, S: 4, 3",A,4,,S,3,,,,,7,,34.87,38.95, ,,,,,,,,,,,,,0,0, ,,,,,34.87,38.95,,Earliest is a gold coin of Severus Alexander.,,,"Bolin 1926, 126 number 23; Kent 1994; Bland 1997, table 4, number 277"
385,1283,Ušće,Ušće,Skela,Serbia,43.466549,20.608969,,296,311,,318,,311/13,296/318,,,,,27.8,27.8, ,"A, S: 5",A,5,,S,,,,,,5,,27.8,27.8, ,,,,,,,,,,,,,0,0, ,,,,,27.8,27.8,,"3 aurei; 1 ‘festaureus’ (RIC VII Trier, p.164, number9: 5.3g); 1.5 solidus multiple, Constantine I. Terminus post quem ca. 317",,,"Mirnik 1981, 311; Duncan 1993; Bland 1997, table 4, number 96"
1924,1648,Klein-Tromp,Klein-Tromp (Braniewo),,Poland,54.283333,19.85,,425,238,,456,,238/44,425/56,,,,,511.8,511.8,ca.,"A, S: c.115",A,,,S,,,,,,115,ca.,511.75,511.75,ca.,,,,,,,,,,,,,0,0, ,,,,,511.75,511.75,,97 identified; earliest Gordian III at Rome ‘P M TR P II COP PP’; latest Pulcheria. Terminus post quem ca. 440,,,"Kent 1994; Bland 1997, table 4, number 278"
816,1881,Firtusu,Firtusu (Firtos-Varalya),,Romania,46.426334,25.150206,,610,270,,640,,270/75,610/640,,,,,1335,1335,ca.,"A, S: c.300",A,,,S,,,,,,300,ca.,1335,1335,ca.,,,,,,,,,,,,,0,0, ,,,,,1335,1335,,Five seen; Aurelian to Heraclius (ca. 620).,,,"Bolin 1926, 187; Kent 1994"
1519,670,Berlare,Berlare,Flandre-Or.,Belgium,51.017444,4.005882,,260,260,,275,,260/75,260/75,,,,,0,0,ca.,A: ?,A,,,,,,,,,,,0,0, ,,,,,,,,,,,,,0,0, ,,,,,0,0,,many aurei of Postumus,,,"Thirion 1967, 53, number 25; Brenot & Loriot 1992, 270, number 38"
126,947,Reguengo,Reguengo,,Portugal,39.297394,-7.393038,,260,238,,275,,238/60,260/75,,,,,17.9,67.5,ca.,A: ?,A,,,,,,,,,,,4.4,5.12,+,a: 750,a,750,,,,,,,,750,,203.5,936.5,ca.,,,,,207.9,941.62,,750 antoniniani/aurei,,,Rivista de Guimaraes 92 (1983): 3-85; Guest 1994
980,378,Kingersheim,Kingersheim,Ht-Rhin,France,47.789678,7.334723,,238,161,,260,,161/80,238/60,,,,,7.2,7.2,+,A: 1,A,1,,,,,,,,1,,7.2,7.2, ,,,,,,,,,,,,,,,,,,,+,7.2,7.2,"also 2 rings (uncertain, as yet, if AR or AV).",AR coins from Antoninus Pius to Trajan Decius;  Terminus post quem 249/51.,,,"Brenot & Loriot 1992, 266, number 14"
677,575,Tunnel de l'Épine,Tunnel de l'Épine,Savoie,France,45.57828,5.824614,,238,,,260,,,238/60,,,,,4.5,4.5,ca.,A: 1,A,1,,,,,,,,1,,4.4,4.4, ,a: ?,a,,,,,,,,,,,0,1.25, ,,,,,4.4,5.65,,aureus of Gordian III. AR coins run up to Gordian III,,,"TAF V/2, 75, number18; Brenot & Loriot 1992, 267, number 19"
145,984,Serra do Condäo,Serra do Condäo,,Portugal,40.177067,-8.895009,,260,238,,275,,238/60,260/75,1870,1870,,,4.7,5.5,ca.,A: 1,A,1,,,,,,,,1,,4.4,4.4, ,a: 14,a,14,,,,,,,,14,,4.8,16.5, ,,,,,9.2,20.9,,1 aureus of Gallienus,,,"Bost et al. 1992, 60, number 155; Brenot & Loriot 1992, 267, number 17; Guest 1994"
1495,1343,Köln III,Köln (Stephanstraße),Nordrhein-Westfallen,Germany,50.934088,6.95681,,348,161,,363,,161/80,348/63,,,,,5.5,9.5,ca.,A: 1,A,1,,,,,,,,1,,5.04,7.2, ,a: 14,a,14,,,,,,,,14,,6.5,34.1, ,4057,,,,11.54,41.3,,,,,"FMRD VI 1, 1: 1003/3a-d; Guest 1994"
813,1105,Dámbel,Dámbel,Bolzano,Italy,46.405469,11.092998,,275,260,,296,,260/75,275/96,1894,1894,,,8.7,11.4,ca. +,A: 1,A,1,,,,,,,,1,,5.34,5.34, ,a: 284,a,284,,,,,,,,284,,51.2,90.8, ,,,,+,56.54,96.14,also a spoon and a dish.,AV coin weight actual.,,,"Gorini 1992, 192, number 12; Brenot & Loriot 1992, 272, number 62; Guest 1994"
1497,1310,Köln I,Köln (Maria im Kapitol),Nordrhein-Westfallen,Germany,50.937531,6.960279,,330,260,,348,,260/75,330/48,1889,1889,,,5.2,5.2,+,A: 1,A,1,,,,,,,,1,,5.12,5.12, ,a: 5+,a,5,+,,,,,,,5,+,1.5,1.5,+,5223,,,,6.62,6.62,,5223 nummi,,,FMRD VI/1.1: 1003/4a-n; Guest 1994
1029,1261,Kellmünz,Kellmünz,Bayern,Germany,48.122457,10.127143,,296,284,,318,,284,296/318,1952,1952,,,6.3,6.3, ,A: 1,A,1,,,,,,,,1,,5.3,5.3, ,arg: 5,Arg,5,,,,,,,,5,,15,15, ,1307,,,,20.3,20.3,,Aureus of Galerius (ca. 305). 5 argentei. Terminus post quem ca. 308,,,"FMRD I/7, 7157; Brenot & Loriot 1992, 272, number 57; Guest 1994; Bland 1997, table 4, number 66"
727,271,Bušetina,Bušetina,Virovitica,Croatia,45.899414,17.358197,,238,81,,260,,81/96,238/60,1873,1873,,,7.1,8.9, ,A: 1,A,1,,,,,,,,1,,4.4,4.4,ca.,"D, a: 19, 10",a,10,,D,19,,,,,29,,40.6,67, ,,,,,45,71.4,,"Domitian to Maximinus I (denarii), Gordian III to Valerian I (antoniniani), AV Valerian I",,,"Gazdac 2002, 503-4"
1092,140,Baden-Baden,Baden-Baden,,Germany,48.762778,8.240833,,222,,,238,,Repub.,222/38,,,,,60.1,141.8,ca.,A: 1,A,1,,,,,,,,1,,7.2,7.2, ,"D, a: 561, 3",a,3,,D,561,,,,,564,,794.7,2021.6, ,,,,,801.9,2028.8,,aureus period 3,,,"FMRD II/2, 2196; Brenot & Loriot 1992, 265, number 5; Guest 1994"
1113,1071,Authieux II,Authieux,Eure,France,48.898525,1.233807,,275,193,,296,,193/222,275/96,1984,1984,,,18.6,193.3,ca. +,A: 1,A,1,,,,,,,,1,,5.04,5.04, ,"D, a: 6, 1084",a,1084,,D,6,,,,,1090,,204,2827.6, ,,209.04,2832.64,,418.08,5665.28,"1. AV coin. 2. AR ring: large finger ring with bezel inscribed ‘X[   ]/AVGVP/VT(E or F)P’. Diameter: 31mm. No weight given. 3. AR ring: small with rectangular bezel. Diameter: 19mm. No weight given. 4. AR ring: octagonal, no bezel, with geometric decoration. Diameter: 19mm. No weight given. 5. AR coins. AV: 5.04g AR: 204.0-2827.6g (coins)",Aureus struck in the name of Diocletian. Severus to Galerius/Maximian (Terminus post quem ca. 294). Hollard does not provide weights of rings. AR coins from Severus to the early Tetrarchy.,"found wrapped in a piece of coarse cloth cut into strips, all contained within a broken ceramic vessel",,"Hollard 1989; Brenot & Loriot 1992, 271, number 52"
925,709,La Chapelle-Launay,La Chapelle-Launay,Loire-Atlantique,France,47.372339,-1.971835,,260,98,,275,,98/117,260/75,1906,1906,,,5.5,5.5,ca. +,A: 1,A,1,,,,,,,,1,,5.51,5.51, ,"D, a: c.3500 (39, 2651)",a,,,D,,,,,,3500,ca.,0,0,ca.,,,,+,5.51,5.51,Also includes: AV ring with the inscription 'RIC' in the hollow of the bezel setting. weight: not given Also 7 AR spoons. weights: not given,Aureus weight actual.  denarii: Trajan to Lucius Verus; antoniniani: Philip to Tetrici and imitations.,,,"TAF III, 82, number 4; Brenot & Loriot 1992, 268, number 26; Guest 1994"
842,177,Klagenfurt I,Klagenfurt,Kärnten,Austria,46.616667,14.3,,222,54,,238,,54/68,222/38,,,,,14.4,22.1,ca.,A: 1,A,1,,,,,,,,1,,7.75,7.75, ,"D, a?: ? (69)",a,,,D,,,,,,69,?,99.3,215.2, ,,,,,107.05,222.95,,One aureus of Vespasian in a hoard of silver from Nero to Severus Alexander,,,"Brenot & Loriot 1992, 266, number 8; Guest 1994"
1486,130,Waregem,Waregem,,Belgium,50.883333,3.416667,,193,161,,222,,161/80,193/222,1854,1854,,,8.2,8.7, ,A: 1,A,1,,,,,,,,1,,7.1,7.2, ,D: 9,D,9,,,,,,,,9,,17.2,22.6, ,1,,,,24.3,29.8,,1 dupondii,found with pot,,"Thirion 1967, number 324; Guest 1994"
712,1037,Virovitica,Virovitica,Hrvatska,Croatia,45.831646,17.385542,,260,69,,275,,69/96,260/75,,,,,7.9,12.9,ca.,A: 1+,A,1,+,,,,,,,1,+,7.2,7.2,ca.,"D, a: 30",a,,,D,,,,,,30,,10.8,85.8, ,,,,+,18,93,Also includes AV/AR jewellery and one cameo,,,,"Mirnik 1981, number 159; Brenot & Loriot 1992, 270, number 40; Guest 1994"
953,219,Waltenhoffen,Waltenhoffen,"Martinszell, Bayern",Germany,47.664458,10.30695,,222,68,,238,,68/69,222/38,1862,1862,,,111.6,175.4,ca.,A: 10,A,10,,,,,,,,10,,64.8,71.2, ,"D, a?: c.500",a,,,D,,,,,,500,ca,702.7,1564.3,ca.,,,,,767.5,1635.5,,1 aureus of Galba (earliest coin). Latest AR is Severus Alexander,,,"FMRD I/7, 7194; Brenot & Loriot 1992, 265, number 7"
1504,179,Köln II,Köln (Gertrudenstraße),Nordrhein-Westfallen,Germany,50.957836,6.921102,,222,41,,238,,41/54,222/38,1909,1909,,,2286.8,4551.4,ca.,A: 100-150 (m.125),A,125,ca.,,,,,,,125,ca.,888.1,961.9, ,"D, a: c.15,000",a,,,D,,,,,,15000,ca.,21001.7,53847.8,ca.,,,,,21889.8,54809.7,,"60 aurei identified; 4278 denarii identified; 142 antoniniani. Aurei periods 2-8, 10; denarii 3-11. FMRD checked; no more details available",,,"FMRD, VI, 1, 1, 1004, p.254; Brenot & Loriot 1992, 266, 13; Guest 1994"
1060,118,Troyes I,Troyes,Aube,France,48.2997,4.0792,,193,54,,222,,54/68,193/222,1726,1726,,,724.3,734.3, ,A: 102,A,102,,,,,,,,102,,724.3,734.3, ,,,,,,,,,,,,,0,0, ,,,,,724.3,734.3,,from Nero (post reform) to Severus. Terminus post quem ca. 193.,,,"Blanchet 1900, number 154"
672,464,Osijek,Osijek,Hrvatska,Croatia,45.555486,18.696115,,238,193,,260,,193/222,238/60,,,,,3.4,5,ca.,A: 11,A,11,,,,,,,,11,,51.1,75.4, ,,,,,,,,,,,,,,,,,,,+,51.1,75.4,also 1 ring & 1 small AV ingot,AR coins of Gordian III (latest);,,,"Mirnik 1981, number  199; Brenot & Loriot 1992, 266, number 15"
800,871,Mâcon (France),Mâcon,Saône-et-Loire,France,46.306916,4.828801,,260,100,,275,,100/250,260/75,1764,1764,,,162.9,162.9,+,A: 11+,A,11,+,,,,,,,11,+,48.4,48.4,+,,,,,,,,,,,,,0,0, ,,1739.18,1739.18,+,1787.58,1787.58,"1. AV chain: set with emeralds and pearls. weight not established. 2-3. 2 AV/AR vessels: 'patères'. weights not established. 4. AR statuette: Jupiter. H.: 6.5cm. weight: 104.51g. Walters number27. 5. AR statuette: Diana. H.: 7.7cm. weight: 137.35g. Walters number28. 6. AR statuette: Mercury. H.: 11.2cm. weight: 336.0g. Walters number29. 7. AR statuette: Mercury. H.: 6.8cm. weight: 70.0g. Walters number30. 8. AR statuette: Mercury. H.: 6.5cm. weight: 71.57g. Walters number31. 9. AR statuette: Mercury. H.: 8cm. weight: 150.9g. Walters number32. 10. AR statuette: Tyche (?) with double cornucopia and busts of Apollo and Artemis, and on her shoulders the busts of the Dioscuri and seven busts representing days of the week. H.: 14cm. weight: 213.76g. Walters number33. 11. AR statuette: Genius. H.: 14cm. weight: 104.69g. Walters number34. 12. AR statuette: Zeus. H.: 7.2cm. weight: not given. Walters number 35. The style of the piece suggests its placing within the find. 13-19. AR statuettes: additional statuettes in private hands. 20-24. 5 pedestals: presumably for the statues. 25. Goat: 'chèvre'. (?) 26. Cock. 27. Plaque: with a representation of Justice (?). 28. Serpent: about 18 inches ('pouces') in length. 29. Cup: decorated with small figures; Thetis and Pele? 30. AR plate: chased decoration on sides and decorated with precious stones in the interior. The interior of the plate is decorated with a series of medallions with geometric designs and a central medallions showing a togate figure holding an object (some kind of ring?). Diameter: 26cm. weight: 500g. 31. AV/AR coins: 30,000 AV/AR denarii from the Republic to Gallienus; also Greek provincial. 11 AV aurei are known. AV: 50.4g+ AR : 1688.78g+",Most of the find was melted down. The exact content of the deposit is obviously hard to establish.,"found near a worn track in the centre of a rampart ('près du glacis du chemin couvert viv-a-vis le milieu du rempart où est la promenade de la ville'). The actual find was made amongst marble debris which exhibited signs of fire damage, by a vinegrower at a depth of ca. 8-9ft.","Depart of Greek and Roman Antiquities, The British Museum","Blanchet 1900, 284; Dalton 1901, n. 311; Walters 1921, 27-34, 35?; Baratte 1984, 185-96, numbers 133-41; Brenot & Loriot 1992, 268, number 29; Painter forthcoming [Q]"
1061,119,Troyes II,Troyes,Aube,France,48.2997,4.0792,,193,98,,222,,98/117,193/222,,,,,781.1,791.9, ,A: 110 (22),A,110,,,,,,,,110,,781.1,791.9, ,,,,,,,,,,,,,0,0, ,,,,,781.1,791.9,,Trajan to Crispina. Terminus post quem ca. 193,,,"Le Gentilhomme 1943, 28"
967,112,Szönyi Tanyák IV,Szönyi Tanyák (Brigetio),Komaron,Hungary,47.735276,18.169111,,193,54,,222,,54/68,193/222,1959,1959,,,851.6,851.6, ,A: 118 (114),A,118,ca.,,,,,,,118,ca.,851.55,851.55, ,,,,,,,,,,,,,0,0, ,,,,,851.55,851.55,,weights taken from original report in comparison with RIC types listed.,found south of the former legionary camp. Possibly hidden in an AE vessel wrapped in textile,,"Bíró-Sey 1977, 127-30; Guest 1994; Gazdac 2002, 499"
803,1198,Petrijanec I,Petrijanec,Varazdin,Croatia,46.345576,16.228202,,275,117,,296,,117/38,275/96,1805,1805,,,656.8,912.4,+,A: 120,A,120,,,,,,,,120,,607,862.1, ,,,,,,,,,,,,,0,0, ,,,,+,607,862.1,"bracelets, various other jewellery items; no more details given","‘116 aurei Hadrian-Diocletian (including one mult. of Carus), two bracelets mounted with four aurei (Antoninus to Claudius II) and seven aurei (Hadrian to Caracalla) mounted, and various other jewellery items’ Brenot & Loriot 1992, 272. No more details given by Mirnik. weight estimate for the seven aurei of Hadrian to Caracalla: 49.8-50.3g.",,,"Mirnik 1981, number 205; Brenot & Loriot 1992, 272, number 61; Guest 1994"
395,20,Le Cannet,Le Cannet,Var,France,43.531709,6.713735,,193,69,,222,,69/79,193/222,1938,1938,,,859.2,871.1, ,A: 121,A,121,,,,,,,,121,,859.2,871.1, ,,,,,,,,,,,,,0,0, ,,,,,859.2,871.1,,Vespasian to Plautilla. Terminus post quem ca. 211.,,,"Le Gentilhomme 1943, 28"
785,794,Geneva II,Geneva,,Switzerland,46.198392,6.142296,,260,54,,275,,54/68,260/75,,,,,74.3,105.9, ,A: 14,A,14,,,,,,,,14,,74.3,105.9, ,,,,,,,,,,,,,0,0, ,,,,,74.3,105.9,,latest coin Aurelian. Only part of a hoard,,,"BSFN 1980, 646, number 8; Brenot & Loriot 1992, 267, number 20"
770,966,Samoëns,Samoëns,Haute-Savoie,France,46.084043,6.728168,,260,68,,275,,68/9,260/75,1841,1841,,,73.8,98.7,+,A: 14+,A,14,+,,,,,,,14,+,73.8,98.7,+,,,,,,,,,,,,,0,0, ,,,,,73.8,98.7,,Galba to Aurelian. Terminus post quem ca. 273,,,"Blanchet 1900, number 182"
841,127,Villach,Villach,,Austria,46.614722,13.846111,,193,54,,222,,54/68,193/222,1955,1955,,,1139.9,1139.9, ,A: 162,A,162,,,,,,,,162,,1139.17,1139.17, ,D: 4,D,4,,,,,,,,4,,10.9,10.9, ,,,,,1150.07,1150.07,,AV weights actual; the weights of coins for which only the types are known have been estimated on the basis of similar types in the hoard for which weights are available. Denarii precious metal estimate based on actual coin weights in comparison to Walker's analyses of silver content.,,,FMRÖ 11/3: B1; Guest 1994
107,970,Santa Pola,Santa Pola,Alicante,Spain,38.192358,-0.555182,,260,253,,275,,253/68,260/75,,,,,10.2,10.2, ,A: 2,A,2,,,,,,,,2,,10.2,10.2, ,,,,,,,,,,,,,0,0, ,,,,,10.2,10.2,,possibly separate finds,,,"Bost et al. 1983, 167, number 146; Brenot & Loriot 1992, 267, number 16"
702,1265,Moissat,Moissat,Puy-de-Dôm,France,45.775622,3.353301,,296,,,318,,,296/318,,,,,10.6,10.6,ca.,A: 2,A,2,,,,,,,,2,,10.4,10.4,ca.,arg?: ?,Arg,,,,,,,,,,,3,3,ca. +,,,,,13.4,13.4,,aurei include 1 Tetricus II; AR from Diocletian to Maximinus Hercules,,,"Blanchet 1900, 557; TAF VII, number 6; Brenot & Loriot 1992, 271, number 50"
1343,1199,Philippeville,Philippeville,"Surice, Namur",Belgium,50.18249,4.70017,,275,138,,296,,138/61,275/96,1850,1850,,,10.3,10.3,ca. +,A: 2,A,2,,,,,,,,2,,10.1,10.1, ,D: 1,D,1,,,,,,,,1,,2.75,2.75, ,,,,,12.85,12.85,,Two aurei of Probus; also one denarius of Antoninus Pius mounted in large AR ring.,,,"RBN 6 (1850), 346-7; Thirion 1967, number 286; Brenot & Loriot 1992, 270, number 45"
1173,202,Schrotzburg,Schrotzburg,"Bohlingen, Südbaren",Germany,49.34545,9.98142,,222,69,,238,,69/96,222/38,1853,1856,,1853-56,15.2,15.7, ,A: 2,A,2,,,,,,,,2,,14.4,14.4, ,D: 7,D,7,,,,,,,,7,,11.4,19.1, ,1,,,,25.8,33.5,,1 dupondii Aurei periods 4&5,,,FMRD II/2: 2122; Guest 1994
875,649,Autun,Autun,Saône-et-Loire,France,46.950914,4.301565,,260,,,275,,,260/75,,,,,10.2.,10.2.,+,A: 2+,A,2,+,,,,,,,2,+,10.2,10.2,+,,,,,,,,,,,,,0,0, ,,10.2,10.2,+,20.4,20.4,"1. AR vessels: one or more plates, some vases or cups, and at least three spoons (there are thought to have been many more). 2. AV/AR coins. 3. Jewellery: including at least two bracelets, one set with an aureus of Elagabalus, 1 pendant with an antoninianus of Otacilia Severa set in an AV mount; also many rings. Weights not given. AV: 10.2g+ AR: ?",included at least two aurei of Philip and Gallienus.,found in a large lead chest in the town cemetry,lost,"BSFN 1985, 603; Brenot & Loriot 1992, 268, number 30"
1083,909,Naix-aux-Forges,,"Ligny, Meuse",France,48.637042,5.376804,,260,,?,275,,,260/75,1809,1809,,,273,273,+,A: 2+,A,2,+,,,,,,,2,+,8.8,8.8,+,,,,,,,,,,,,,0,0, ,,273,273,+,281.8,281.8,1-9. 9 AV necklaces: one includes pendants mounted with 4 aurei from Hadrian to Separt Severus; another one aureus of Antoninus Pius on a pendant; one with with an antoninianus of Otacilla Severa in an AV mount. weight estimate (AV): 36.0g+. 10-11. AV bracelets: at least two. weights: not established. 12-16. 5 AV rings. weights: not established. 17-22: 6 AR rings. weights: not established. 23. AR ingot. weight: not established. 24. AV piece: weighing about 8 ounces (ca. 226.8g). 25. AR plates: one or more; also some vases; and at least three spoons. weights: not established. 26. ca. 1800 AV/AR coins: from Septimius Severus to Gallienus. Included at least 2 aurei of Philip & Gallienus. weight estimate: 10.2g+. AV: 273.0g+ AR: ?,,found in the remains of a wooden chest bound with strips of copper,,"Blanchet 1900, 102; Brenot & Loriot 1992, 269, number 37; Wiegels 2003, number 49"
937,1086,Bregenz,Bregenz,Voralberg,Austria,47.50075,9.74231,,275,,?,296,,-,275/96,,,,,10.1,10.1,+,A: 2+,A,2,+,,,,,,,2,+,10.1,10.1,+,,,,,,,,,,,,,0,0, ,,,,,10.1,10.1,,aurei of Probus and Numerian Caesar; probably only part of a larger deposit,,,"Loriot 1988, 76; Brenot & Loriot 1992, 270, number 46"
909,1277,Schmerikon,Schmerikon,St. Gallen,Switzerland,47.2259,8.9456,,296,275,?,318,,275/96?,296/318,,,,,10.3,10.3,ca. +,A: 2+?,A,2,ca. +,,,,,,,2,ca. +,10.3,10.3,ca. +,,,,,,,,,,,,,0,0, ,,,,,10.3,10.3,,2 of Carinus & Diocletian; only part of a larger hoard,,,"Brenot & Loriot 1992, 272, number 56"
1011,290,Coinces,Coinces,Loiret,France,48.011381,1.742304,,238,138,,260,,138/61,238/60,,,,,16,18.8,+,A: 3,A,3,,,,,,,,3,,16,18.8, ,,,,,,,,,,,,,0,0, ,,,,+,16,18.8,"all mounted in pendant necklace; also 1 gallo-belgic (probably intrusive), and jewellery",,,,"Brenot & Loriot 1992, 266, number 10"
792,995,Saint-Genis-Pouilly,Saint-Genis-Pouilly,Ain,France,46.243748,6.02513,,260,54,,275,,54/68,260/75,1821,1821,,,106.7,141.5,+,A: 3,A,3,,,,,,,,3,,21.6,21.6, ,"D, a: c. 200",a,,,D,,,,,,200,ca.,52.6,575.4,ca.,ca. 12-13,782.45,1305.25,+,856.65,1902.25,"1-2. AV necklaces: one is a chain ending in a medallion set with a garnet. Total wt: 36.85g. 3. AV ring: set with a cornelian engaved with a Priapus sacrifice scene. Diameter: 2.5cm. weight: not given. 4. AR bracelet: able to expand or contract depending on the size of the arm of the wearer.weight: 35.44g. 5. AR ring: large. weight: 35.44g. 6. AR trulla: with a circular handle terminal, engraved with a flower motif. Diameter: 9.8cm. H.: 6cm. weight: 170.0g. 7. AR plate: flat rim is decorated with a geometric plant motif. Diameter: 12cm. weight: 96.0g. 8. AR plate: with ornaments on the handle, and a lid engraved with the names Victor and Regina (presumably referring to Victorinus). weight: 255.14g. 9. AR spoon: with a pear shaped bowl. Length: 17.5cm. weight: 21.0g. 10. AR spoon: as 9. Length: 18cm. weight: 21.0g. 11-12. 2 AR styli: comma shaped eraser end. weights: 18.7g, 18.7g. 13. Some studs, some rings, and other AR objects of different sizes. 14. AE coin: of Julia Domna, set in an AR roundel, perhaps able to be used as a pendant. 15. AV coins. 16. AR coins. 17. 12-13 AE coins. AV: 58.45g  AR: 724.0-1246.8g+","Huvelin and Loriot (1992) also list an AE statuette, an additional AR dish, and 2 AR spoons. Current AR weight only includes known AR weights of objects. Aurei including 1 of Galba. AR coins run from Vespasian to Valerian/Gallienus.",,Geneva Museum,"TAF V/1, 31, number 36; BSFN 1991, 81-83; Brenot & Loriot 1992, 268, number 27"
1110,220,Welzheim,Welzheim,,Germany,48.874438,9.631824,,222,,,238,,Repub.,222/38,,,,,93.4,239,ca.,A: 3,A,3,,,,,,,,3,,21.6,21.6, ,"D, a: c.1000 (666, 5)",a,,,D,,,,,,1000,ca.,1403.2,3588.8, ,,,,,1424.8,3610.4,,"aurei pers. 3, 4, 6",,,FMRD II/4: 4596; Guest 1994
1104,157,Eining I,Eining,,Germany,48.856561,11.771328,,222,,,238,,Repub.,222/38,1949,1949,,,26.1,32.7, ,A: 3,A,3,,,,,,,,3,,21.6,21.6, ,D: 47,D,47,,,,,,,,47,,68,166.5, ,"13, 10, 1",,,+,89.6,188.1,Also AR rings.,"13 sesterces, 10 dupondii, 1 as. Aurei periods 4, 5, 7",found in castle,,"FMRD 1/2, 98, number2034; Guest 1994"
1079,1255,Esternberg,Esternberg,Oberösterreich,Austria,48.543713,13.572084,,296,296,,318,,296/318,296/318,1845,1845,,,16.1,16.1,+,A: 3+,A,3,+,,,,,,,3,+,15.9,15.9,+,Arg: ?,Arg,,,,,,,,,,,3,3,+,,,,,18.9,18.9,,aurei & argenterei of the Tetrarchy; the 3 known are Diocletian.,,,"NZ 1977, 41, number G-7; Brenot & Loriot 1992, 272, number 58"
716,1264,Mareno di Piave,Mareno di Piave,Treviso,Italy,45.844156,12.347039,,296,286,,318,,286/305,296/318,1771,1771,,,26.5,26.5,ca. +,A: 3+?,A,3,+,,,,,,,3,+,26.5,26.5,ca. +,,,,,,,,,,,,,0,0, ,,,,,26.5,26.5,,Maximian and Galerius. Possibly part of a larger hoard,,,"Gorini 1992, 192, number 13"
554,930,Parma I,Parma (Via Mazzini),,Italy,44.801693,10.326963,,260,54,,275,,54/68,260/75,,,,,238.2,255.2, ,A: 33,A,33,,,,,,,,33,,238.2,255.2, ,,,,,,,,,,,,,0,0, ,,,,+,238.2,255.2,One aureus of Gallienus mounted in a pendant necklace; also other jewellery and fibulae. Details not provided.,33 aurei from Nero to Trajan,,,"de Lama 1825; Brenot & Loriot 1992, 270, number 41"
623,1246,Allègre,Allègre,Haute-Loire,France,45.200105,3.712038,,296,161,,318,,161/80,296/318,1821,1821,,,171.6,221.5,+,A: 33,A,33,,,,,,,,33,,171.6,221.5,ca.,,,,,,,,,,,,,0,0, ,,,,+,171.6,221.5,1. AV aurei. 2. AV necklace: weight: not established. 3. AV bracelet: weight: not established. 4. AV bracelet: weight: not established. 5. AV ingot: weight: not established. AV: ?,"Aurei including 9 Marcus Aurelius to Diocletian: MA (1), Postumus (2), Victorinus (1), Tetricus (1), Tetricus II (1), Carus (1), Diocletian (2).",found in a vase,Puy Museum (10 coins); dispersed,"TAF VII, number1; Brenot & Loriot 1992, 271, number 49"
630,1005,Suluc,Suluc (Macin),Tulcea,Romania,45.242685,28.134689,,260,238,,275,,238/60,260/75,1911,1911,,,23.4,23.4,+,A: 4,A,4,,,,,,,,4,,21.38,21.38, ,,,,,,,,,,,,,0,0, ,,1.97,1.97,,23.35,23.35,"A large number of gold and silver objects were found with the coins, but details of these are not given. The only piece described is an AV amulet in the form of a palm of a right hand set with a garnet. weight: 1.97g.","Known weights of coins: 4.76, 5.88, 5.88. Earliest coin is of Hostilian (ca. 250-51); average weight of coins of his period was 4.86g (RIC IV, pt.3, xxi; average weight of aurei of Trajan Decius).",,Institut d'Archéologie de Bucarest; Musée National d'Histoire de Bucarest; dispersed,Iliescu 1987; Guest 1994
671,1273,Piazzola sul Brenta,Piazzola sul Brenta,Padova,Italy,45.543059,11.785617,,296,275,,318,,275/96,296/318,,,,,21.2,21.2, ,A: 4,A,4,,,,,,,,4,,21.2,21.2, ,,,,,,,,,,,,,0,0, ,,,,,21.2,21.2,,"1 Diocletian, 3 Maximinus Herculus",,,"Gorini 1992, 192, number 13"
358,336,Garabe II,Garabe,Vratsa,Bulgaria,43.307944,23.915259,ca.,238,238,,260,,238/44,238/60,1936,1936,,,29.3,29.3, ,A: 4,A,4,,,,,,,,4,,17.6,17.6, ,a: 140,a,140,,,,,,,,140,,175,175, ,,,,,192.6,192.6,,Gordian III to Philip I,,,"Gazdac 2002, 543-4"
564,257,Bordeaux I,Bordeaux,Gironde,France,44.837789,-0.57918,,238,69,,260,,69/96,238/60,1801,1801,,,237.9,237.9, ,A: 43,A,43,,,,,,,,43,,237.9,237.9, ,,,,,,,,,,,,,0,0, ,,,,,237.9,237.9,,"41 identified. Reece 4 (2), Reece 5 (1), Reece 7 (4), Hobbs 1 (10), Hobbs 2 (4), Hobbs 3 (16), Hobbs 3/4 (4).",,,"TAF VI, 19, number  6; Brenot & Loriot 1992, 267, number 21; Guest 1994"
148,11,Barroca da Laje,Barroca da Laje,,Portugal,40.317099,-7.418231,,193,54,,222,,54/68,193/222,,,,,313.1,340.4,+,A: 44,A,44,,,,,,,,44,,313.1,340.4, ,,,,,,,,,,,,,,,,,,,,313.1,340.4,,40 examined. found with  an uncertain number of AR coins,,,"Bost et al. 1992, 41, number 21; Guest 1994"
717,958,Ruffieux,Ruffieux (Nivolas-Vermelle),,France,45.848149,5.843399,,260,100,,275,,100/300,260/75,1837,1837,,,140.5,148.8, ,A: 6,A,6,,,,,,,,6,,32.8,41.1, ,,,,,,,,,,,,,0,0, ,,742.5,757,,775.3,798.1,"1. AR trulla: handle is decorated with geometric plant motifs. Inscribed 'ca. DIDI SECVNDI MILength LEG II AVG 7 MARI' (CIL 2355). Diameter: 10.7cm. weight: 187.5g. 2. AR trulla: handle has a circular beaded terminal, and graffiti inscription 'MARINI FIG(U)LI'. Diameter: 10.5cm. weight: 233g. 3. AR cup: outside is decorated with geometric plant motifs. Diameter: 6.9cm. H.: 4.7cm. weight: 128.2g. 4. AR spoon: with 'purse' shaped bowl. Length: 14.3cm. weight: 34.3g. 5. AR spoon: as 4. Length: 11.4cm. weight: 12.8g. 6. AR spoon: as 4, with handle terminating in a small button. Length: 16.2cm. weight: 31.4g. 7. AR spoon: as 4, but with broken handle. Length: 16.3cm. weight: 18g. 8. AV ring: set with an intaglio, a cornelian, engraved with Priapus. Diameter: 2.4cm. weight: 9.6g. 9. AV ring: with engraved lines; nicolo setting, showing an animal with a raised bushy tail. Diameter: 3.1cm. weight: 18.5g. 10. AV ring: with a green paste setting. Diameter: 3.6cm. weight: 36.6g. 11. 6 AV aurei. AV: 97.5-105.8g AR: 645.2g",Dating of these pieces based upon comparative material from Vienne. Aurei run from Hadrian to Valerian/Gallienus,"found on the eastern side of a hill underneath a tree which was being dug up, 80m from the road from Lyon to Grenoble","Museum of the Romano-Gallic civilisation, Lyon; Museé des Beaux-Arts, Lyon","Feugere 1984/5, 61, footnote 47; Baratte & Painter 1989, 197-202, numbers143-49; TAF V/2, 47, number19; Brenot & Loriot 1992, 267, number18; Guest 1994"
863,719,Clairmont,Clairmont,Vendée,France,46.793425,-2.066331,,260,,?,275,,-,260/75,1754,1754,,,31,51,ca.,A: 6,A,6,,,,,,,,6,,27.1,30, ,"D, a: 217",a,,,D,,,,,,217,,59.8,315.7, ,,,,,86.9,345.7,,AV Trebonius Gallus to Postumus; AR assumed to cover a similar period. Terminus post quem ca. 268.,,,"Blanchet 1900, number 577"
444,767,Éauze,Éauze,Gers,France,43.862587,0.10053,,260,41,taq,275,,to AD 41,260/75,,,,,487.5,4318,ca. +,A: 6,A,6,,,,,,,,6,,32.8,41.1, ,"D, a: c. 28,000",a,,,D,,,,,,28000,ca.,6442.1,63838,ca.,,379.3,379.3,,6854.2,64258.4,1. AR ingot: weight: 69.32g. 2. AR ingot: weight: 151.06g. 3. AR ingot: weight: 158.88g. 4. AV/AR jewellery: details not established. 5. 45 Gallo-Belgica. 6. AV coins.  7. AR coins. Total ingot weights: 379.3g,AV coins from Marcus Aurelius to Gallienus. AR coins from Commodus to Gallienus/ Postumus.,,?,"Dieulafait et al. 1987; Brenot & Loriot 1992, 267, number 22"
1137,812,Heudreville-sur-Eure,Heudreville-sur-Eure,Eure,France,49.140222,1.187765,,260,193,,275,,193/222,260/75,1880,1880,,,43.7,251.9,ca. +,A: 6? (1),A,6,?,,,,,,,6,?,19.3,19.3, ,"D, a: 2, 1343",a,1343,,D,2,,,,,1345,,365.8,3493.2, ,,,,+,385.1,3512.5,"also 3 octagonal AV rings (jewellery), no more details provided ('trois petits coulants d'or de forme octagonale')",between one & six aurei; one is Postumus.,,,"TAF IV, 83, number 42; Brenot & Loriot 1992, 269, number36; Guest 1994"
965,1225,Szönyi Tanyák III,Szönyi Tanyák (Brigetio),Komarom,Hungary,47.735239,18.16955,,275,275,,296,,275/96,275/96,1946,1946,,,35.3,35.3, ,A: 7,A,7,,,,,,,,7,,35.3,35.3, ,,,,,,,,,,,,,0,0, ,,,,+,35.3,35.3,"also jewellery, and an AV hack piece.",,found next to praetorium of the legionary fortress,,"NK 1949-1950, 509; Brenot & Loriot 1992, 272, number60; Guest 1994; Gazdac 2002, 512"
1299,172,Kempten/Spinnerei,Kempten/Spinnerei,"Schwaben, Bayern",Germany,49.966253,11.633307,,222,54,,238,,54/68,222/38,1852,1852,,,52.3,54.2, ,A: 7,A,7,,,,,,,,7,,50.4,50.4, ,D: 19,D,19,,,,,,,,19,,28.3,57.7, ,,,,,78.7,108.1,,"aurei periods 3(1), 4(1), 5(2), 6(1), 7(2)",,,"FMRD I/7, 7188; Brenot & Loriot 1992, 265, number6; Guest 1994"
429,1102,La Condamine,La Condamine,,Monaco,43.734444,7.420833,,275,193,,296,,193/222,275/96,1879,1879,,,47.4,61.8,ca. +,A: 9,A,9,,,,,,,,9,,47.4,61.8, ,,,,,,,,,,,,,0,0, ,,,,+,47.4,61.8,Also includes AV jewellery and 1 AV leaf. Details not recorded,coins run from Severus to Florianus.,,,"Mémoires de la Société nationale des antiquaires de France 1879, 160-227; Blanchet 1900, number 233; Brenot & Loriot 1992, 270, number43"
768,1187,Neuville-sur-Ain,Neuville-sur-Ain,Ain,France,46.081637,5.371802,,275,260,,296,,260/75,275/96,1889,1889,,,141.4,142,+,A: 9,A,9,,,,,,,,9,,45.4,46, ,,,,,,,,,,,,,0,0, ,,96,96,,141.4,142,"1. AV ring: with 8 lozenges. Wt: 1.64g. 2. AV intaglio ring: with an oval cornelian with engraved bust. Wt: 6.43g. 3. AV intaglio ring: with figure walking l. and carrying scales. Wt: 7.80g. 4. AV bracelet: in 4 sections.Wt: 16.42g. 5. AV bracelet: similar to 4, but smaller sections. Wt: 16.50g. 6. AV chain: consisting of 73 sections terminating in a ring. 49cm long. weight: 19.71g. 7. AV necklace fragment: no weight given. 8. AV medallion: of Victorinus. No weightgiven. 9. AV lozenge: Length: 5.1cm. weight: 14.50g. 10. AV lozenge: similar to 9. weight: 13g. Total weight of non-coin artefacts: 96.0g",Laelian to Maximinus Herculus. Terminus post quem ca. 287. One aureus was inserted in an AV mount.,found in a ceramic vase,private colls.,"Blanchet 1900, number297; TAF V/I, 29, number 31; Brenot & Loriot 1992, 271, number 51; Guest 1994"
1095,100,Sceaux,Sceaux,Loiret,France,48.778016,2.295092,,193,69,,222,,69/79,193/222,1852,1852,,,187.3,259.2,ca.,A: 9,A,9,,,,,,,,9,,64,64.7, ,D: 1011,D,1011,,,,,,,,1011,,1851.2,2920.7, ,,,,,1915.2,2985.4,,Vespasian to Plautilla,,,"Blanchet 1900, number 483"
511,843,Labretonie,Labretonie,Lot-et-Garonne,France,44.489029,0.367396,,260,222,,275,,222/38,260/75,,,,,694.4,706.9,ca. +,A: 9+,A,9,+,,,,,,,9,+,46.1,57.6,+,a: 9+,a,9,+,,,,,,,9,+,4.5,19.3, ,,648,648,,698.6,724.9,"Also includes jewellery, and 2 1 lb. AV ingots; so if it is assumed that these each weighed ca. 324g, then their total weight is 648g.",,,,"TAF VI, 61, number 7; Brenot & Loriot 1992, 267, number 23; Guest 1994"
1027,949,Rennes,Rennes,Ille-et-Vilaine,France,48.113475,-1.675708,,260,54,,275,,54/68,260/75,1774,1774,,,669.3,669.3,+,A: 94,A,94,,,,,,,,94,,648.8,648.8, ,,,,,,,,,,,,,0,0, ,,669.3,669.3,+,1318.1,1318.1,"1. AV necklace: 4 aurei of Postumus mounted as pendantoniniani weightestimate: 20.5g+. 2. AV coins: 94 aurei from Nero to Aurelian. Nero (2), Titus (2), Domitian (1), Trajan (7), Hadrian (8), Sabina (1), Pius (13), Aurelius (7), Faustina (1), Verus (7), Commodus (2), Crispina (1), Severus (2), Julia Domna (2), Caracalla (4), Geta (3), Macrinus (2), Elagabalus (8), Julia Paula (1), Volusian (1), Postumus (6), Aurelian (15). 3. AV fibula: no more details known. AV:  669.3g+",earliest post-reform Nero,,,"Le Gentilhomme 1943; Brenot & Loriot 1992, 269, number 34"
1578,459,Öchlitz,Öchlitz,Querfurt,Germany,51.323619,11.762248,,238,238,,260,,238/44,238/60,1823,1823,,,57.2,57.2,ca.,A: c. 13,A,13,ca.,,,,,,,13,ca.,57.2,57.2,ca.,,,,,,,,,,,,,0,0, ,,,,,57.2,57.2,,only one known of Gordian III,,,"FMRD X, number  1268"
890,732,Coulanges-lès-Nevers,Coulanges-lès-Nevers,Nièvre,France,47.005594,3.188261,,260,193,,275,,193/222,260/75,,,,,7.1,7.1,+,A: c. 7.1g,A,,,,,,,,,,,7.1,7.1,ca.,,,,,,,,,,,,,0,0, ,,7.1,7.1,+,14.2,14.2,1. AV/AR jewellery: details not established. 2. AV coin. 3. AR coins: from Marcus Aurelius to Valerian/Gallienus. AV: ca. 7.1g+ AR: ?,aureus of Septimius Severus,,,"Blanchet 1900, 269; Brenot & Loriot 1992, 269, number 31"
820,1008,Talmont-Saint-Hilaire I,Talmont-St. Hilaire,Vendée,France,46.466102,-1.618261,,260,238,,275,,238/60,260/75,1856,1856,,,634.4,2444.1,+,A: c. 8-10,A,9,ca.,,,,,,,9,ca.,57.6,72,ca.,"D, a: 620, 25 - 30,000",a,27500,ca.,D,620,,,,,28120,ca.,8293.1,35216.7, ,5,8470.86,35408.86,+,16821.56,70697.56,"1.AR spoon: plain, with purse shaped bowl. Length: 16.1cm. weight: 25g. 2. AR spoon: as 1. Length: 15.8cm. weight: 22.9g. 3. AR ring: large, plain, octagonal ring. Diameter: 2.8cm. weight: 15.17g. 4. AR ring: plain, circular. Diameter: 2cm. weight: 1.52g. 5. AR ring: plain, except for some striations. Diameter: 2.1cm. weight: 1.80g. 6. AR ring: plain, circular. Diameter: 1.9cm. weight: 1.32g. 7. AR ring: decorated with lozenges on the outside. Diameter: 1.95cm. weight: 1.46g. 8. AV ring: octagonal, plain. Diameter: 2.18cm. weight: 6.51g. 9. AR ring: polygonal, plain. Diameter: 2.4cm. weight: 7.21g. 10. AV signet ring: ovular bezel inscribed 'N O N'. Diameter: 2.1cm. weight: 5.19g. 11. AR ring: set with a green paste setting. Diameter: 2.2cm. weight: 5.86g. 12. AV ring: small finger ring with plain bezel. Diameter: 1.9cm. weight: 4.11g. 13. AR ring: with a green paste setting, engraved with a Victory walking r. Diameter: 2.55cm. weight: 6g. 14. AV earring: Diameter: 2.2cm. weight: 0.98g. 15. AV earring: Diameter: 2.2cm. weight: 0.94g. 16. AR bracelet: plain. Diameter: 5.2cm. weight: 8.46g. 17. AR bracelet: as 16. Diameter: 4.3cm. weight: 5.86g. 18. AV coins. 19. AR coins. 20. AE coins. AV: 75.3-89.7g AR: 102.46g+ (non coin items); 8293.1-35216.7 (AR coins)","Aurei run from Hadrian to Severus Alexander. 7358 antoniniani and copies identified; the majority (ca. 20,000 antoniniani) were of Postumus. Also an additional seven AV rings; one was set with an AR denarius of Albinus; six AR rings; two AR combs, at least four AR spoons, maybe as many as 28 to 30. There may also have been two other pairs of AV ear-rings and an AV necklace, but this is impossible to verify.","Originally spotted due to mole activity bringing up coins. The rest of the find was unearthed approximately 0.25m below the surface. This was in a type of small tomb 1.66 x 1.10 x 0.50m, divided into 2 parts by a thin wall of a Gallo-Roman villa. found within two AE vases; jewellery/silverware in one, coins in the other.","Musées départementaux de la Loire-Atlantique, Nantes, musée Dobrée","Annuaire de la Societé d'Emulation de la Vendée 1857, 68; Revue des Provinces de l'Ouest (Bretagne et Poitou) 1856, 36-49; TAF III, 112, number28; Baratte & Painter 1989, 248-53, numbers 204-220; Brenot & Loriot 1992, 268, 25; Guest 1994"
1101,84,Paris I,Paris (Rue Clovis),,France,48.846168,2.349079,,193,41,,222,,41/54,193/222,1867,1867,,,8520.6,9239.4,ca.,A: c.1200 (755),A,1200,ca.,,,,,,,1200,ca.,8520.6,9239.4,ca.,,,,,,,,,,,,,0,0, ,,,,,8520.6,9239.4,,Claudius I to Geta. Terminus post quem ca. 205,,,"Blanchet 1900, number 327; BSFN 1980, 785"
1286,213,Tronchoy,Tronchoy,"Hornoy, Somme",France,49.827655,1.864801,,222,14,,238,,14/37,222/38,1800,1800,ca.,,12801.4,15598.6,ca. +,"A: c.2,000+",A,2000,ca. +,,,,,,,2000,ca. +,12801.4,15598.6,ca. +,,,,,,,,,,,,,0,0, ,,,,,12801.4,15598.6,,Tiberius to Severus Alexander,,,"Blanchet 1900, 32; Brenot & Loriot 1992, 265, number 4"
1115,217,Vertus,Vertus,Marne,France,48.905188,3.999226,,222,98,,238,,98/117,222/38,1862,1862,,,3200.8,3599.2, ,A: c.500,A,500,ca.,,,,,,,500,ca.,3200.8,3599.2, ,,,,,,,,,,,,,0,0, ,,,,,3200.8,3599.2,,Trajan to Geta,,,"Blanchet 1900, number144; Brenot & Loriot 1992, 265, number 3"
819,1027,Le Veillon,Le Veillon,Vendée,France,46.4443,-1.664563,,260,117,,275,,117/38,260/75,1856,1856,,,559.5,4826.6,ca. +,A: c.8-10,A,9,ca.,,,,,,,9,ca.,64.8,64.8,ca.,"D, a: c.25-30,000",a,,,D,,,,,,27500,ca.,7427.6,71498.9,ca.,,,,+,7492.4,71563.7,also jewellery (details not recorded),AV coins Hadrian to Severus Alexander. Terminus post quem ca. 265.,,,"Blanchet 1900, number 579"
804,1364,Petrijanec II,Petrijanec,Varazdin,Croatia,46.345576,16.228202,,348,117,,363,,117/38,348/63,1805,1805,,,1097.5,1768.5,+,"A?, M, S: 1, 246",A,,,Med,1,,S,246,,247,+,1097.5,1768.5,+,,,,,,,,,,,,,0,0, ,,,,+,1097.5,1768.5,"1-2. AV brooches: crossbow brooches with onion terminals, no weights given 3-4. AV bracelets: set with coins, no weights given 5-7. AV bracelets: fragmentary, no weights given 8-14. AV solidi: details unknown 15. AV medallion: of Carus and Carinus (AD282-85), details not given -246+ AV 'solidi': Hadrian to Julian",Found in the same year Petrijanec I,chance discovery in an earthenware pot,"Kunsthistorisches Museum, Vienna","Beck & Bol 1983; Guggisberg & Kaufmann-Heinimann 2003, 343, number 80"
1069,263,Bronnitsa,Bronnitsa,Kogilyov-Podolski,Ukraine,48.401667,27.894722,,238,238,,260,,238/60,238/60,1899,1899,,,4.3,4.3, ,A?: 1,A,1,,,,,,,,1,,4.25,4.25, ,D?: 1,D,1,,,,,,,,1,,1.46,1.46, ,,,,,5.71,5.71,,AV coin of Trajan Decius and a denarius imitation. Estimated weight based upon Casey 1980 [Q],,,"Kropotkin 1962, 198, number  264"
1499,842,Krasnyy Kut,Krasnyy Kut,"Krasnokutski, Saratovskaya Oblast'",Russia,50.949498,46.965843,,260,238,,275,,238/60?,260/75,1900,1900,ca.,,22,25.6,ca. +,A?: 5,A,5,,,,,,,,5,,22,25.6, ,a?: ?,a,,,,,,,,,,,0,0,ca.,,,,,22,25.6,,"5 AV coins and AR coins; AR weighed 8.5lbs. AV coins dispersed. Only AR coins seen antoniniani of Gordian III, Philip I, Otacilia Severa to Gallienus",found in the fill of a barrow; the AV coins had been wrapped in a piece of leather,,"Kropotkin 1962, 186, number 205"
1597,1251,Cardiff,Cardiff (Sully Moors),,Great Britain,51.411165,-3.229141,,296,238,,318,,238/60?,296/318,1899,1899,,,93.7,97.1, ,"DA, A: 1, 6",A,1,,DA,6,,,,,7,,42.4,42.4, ,"D, a: 95, 206",a,206,,D,95,,,,,301,,138.7,190, ,,84.43,84.43,,265.53,316.83,"1. AV ring: plain hoop, square bezel, cock. Marshall 1907, number203. weight: 11.33g. 2. AV ring: 2 grooved hoop, oval bezel, onyx cameo with Medusa head. Marshall 1907, number544. weight: 6.86g. 3. AV ring: elliptical loop, elab. incised octagonal bezel, plain nicolo paste. Marshall 1907, number796. weight: 12.44g. 4. AV ring: elliptical loop, elab. incised octagonal bezel, missing setting. Marshall 1907, number797. weight: 11.40g. 2. AV coins. 3. AR coins. AV: 42.03g (rings); 42.4g (coins): total: 84.43g.",coins from Gallienus to Carausius. An additional 1 denarii & 13 antoniniani are probably to be associated.,found during foundation diggings,"The British Museum (rings); National Museums & Galleries of Wales, Cardiff","Kent & Painter 1977 (123-26); Brenot & Loriot 1992, 271, number 54"
593,1316,Sremska Mitrovica II,Sremska Mitrovica (Sirmium),,Serbia,44.96996,19.610338,,330,317,,348,,317,330/48,1972,1972,,,140.4,140.4, ,"FeA, S: 1, 32",S,32,,FeA,1,,,,,33,,140.44,140.44, ,,,,,,,,,,,,,0,0, ,,,,,140.44,140.44,,1 ‘Festaureus’ (average weight 5.39g - after RIC VIII: 55). 1x 2 solidi mult.; 4x 1.5 solidi mult.; 27 solidi Terminus post quem ca. 336/7.,,,"Vasic & Popovic 1975; Duncan 1993, 76; Bland 1997, table 4, number 98; Gazdac 2002, 531"
966,1300,Szönyi Tanyák I,Szönyi Tanyák (Brigetio),Komarom,Hungary,47.735242,18.169545,,318,284,,330,,284,318/30,1885,1885,ca.,,124.2,124.2, ,"Med, A: 4, 5",A,5,,Med,4,,,,,9,,86.226.5,86.226.5,+,"D, Si: 8, 46",D,8,,Si,46,,,,,54,,172.8,172.8,ca.,,,,,#VALUE!,#VALUE!,,"2 aurei of Numerian; 1 med. of Diocletian at Ticinum (no ref.); 3 aurei of Diocletian; 2 denarii of Diocletian; 3 meds. of Maximian (Gnecchi I, 5t. 5, & Gnecchi I, 5t. 7); 1 denarii of Maximian 5 denarii of Constantius I to Gallerius. Terminus post quem ca. 318. Medallion of Diocletian at Ticinum given as ca. 21.55g (RIC VI, 279).","found by the Danube, n. of the Roman military camp",,"Bíro-Sey 1977, 135-6; Brenot & Loriot 1992, 272, number 60; Guest 1994; Bland 1997, table 4, number 86"
1711,1623,Velp,Velp,Gelderland,Netherlands,51.999066,5.985699,,411,318,,425,,318/30,411/25,,,,,40.5,40.5,+,"Med, S: 5+, ?",S,,,Med,5,+,,,,5,+,40.5,40.5,+,,,,,,,,,,,,,0,0, ,,,,,40.5,40.5,,at least 5 medallions of Honorius and Placidia; solidi from ‘Constantine’ to Johannes,,,"Blanchet 1900, number633; Bolin 1926, 15 number20; Kent 1994"
1366,1325,Borochitsy II,Borochitsy,"Gorokhovski, Volynskaya",Ukraine,50.28019,24.465512,,348,348,,363,,348/64,348/63,,,,,300,300, ,Med: 1,Med,1,,,,,,,,1,,300,300, ,,,,,,,,,,,,,0,0, ,,,,,300,300,,"medallion of Jovian at Constantinople, found in a hoard of unknown size. The hoard was apparently located near to the other hoard from this location. (The same as the other deposit? Two medallions of Jovian in the same place?)",,,"Kropotkin 1966, 28, number 21"
545,1462,Veliko Gradiste,Veliko Gradiste,Pincum,Serbia,44.75,21.516667,,364,,,394,,,364/94,,,,,80.45,80.45, ,Med: 1,Med,1,,,,,,,,1,,80.45,80.45, ,,,,,,,,,,,,,0,0, ,,,,,80.45,80.45,,"one medallion, Val. ‘VIRTVS DD NN AVGVSTORVM’",,,Kondic 1973; Duncan 1993
1365,1324,Borochitsy I,Borochitsy,Berestechkovski,Ukraine,50.28019,24.465512,,348,69,,363,?,69/79,348/63?,1928,1928,,,138.7,207.2,ca.,Med: 1,Med,1,,,,,,,,1,,10.8,10.8,ca. +,D: c.1000,D,1000,ca.,,,,,,,1000,ca.,1921,2949,ca.,,,,+,1931.8,2959.8,also includes 2 Byzantine AR vessels. There were also rumours that an AV dish was also present in  the find.,"Of the coins seen, these run from Vespasian to Jovian (an AV medallion minted at Constantinople). The AR however run only as late as Severus.","found during construction work on the Kovel-Lutsk railway. The coins were apparently contained in the Byzantine vessels, but a 2 handled bi-conical ceramic vessel is also associated with the find.","Archaeological Museum, Warsaw (Byzantine vessels, Med); Shevchenko Museum, Lvov (362 denarii); Ukrainian National Museum, Lvov (61)","Kropotkin 1962, 205-6, number 317"
104,1272,Partinico?,Partinico? (Palermo),Sicily,Italy,38.027035,13.05879,,296,276,,318,,276/81,296/318,1959,1966,,1959-1966,803.7,803.7, ,"Mu, A: 17, 102",A,102,,Mult,17,,,,,119,,803.7,803.7, ,,,,,,,,,,,,,0,0, ,,,,,803.7,803.7,,Earliest Probus. Terminus post quem ca. 308 (Maxentius). weight actual.,recovered from a wreck off the Sicilian coast,,"Brenot & Loriot 1992, 272, number 63; Bland 1997, table 4, number 140"
1956,1337,Gudme II,Gudme,Seeland,Denmark,55.150021,10.705565,,348,337,,363,,337,348/63,,,,,50.6,50.6, ,"Mu, S: 1, 10",S,10,,Mult,1,,,,,11,,50.6,50.6, ,,,,,,,,,,,,,0,0, ,,,,,50.6,50.6,,one is a mult. of Constans (looped): 6.10g. Terminus post quem ca. 355,,,"Kromann 1983-4, 80; Bland 1997, table 4, number 231"
1227,1307,Helleville,Helleville,,France,49.556277,-1.781217,,330,284,,348,,284,330/48,,,,,249.2,249.2, ,"Mu, S: 11, 9",S,9,,Mult,11,,,,,20,,249.2,249.2, ,,,,,,,,,,,,,0,0, ,,,,,249.2,249.2,,"11 AV Multiples: 9 solidi (4), 7 solidi (1), 3 solidi (1), 1 1/2 solidi (2), solidi (7). Terminus post quem ca. 343. See note in RIC VII concerning incorrect pairings of casts",,,"Revue Numismatique 1906; RIC VII, 530-31; Bland 1997, table 4, number 47"
910,1449,Simleu Silvaniei,Simleu Silvaniei (Szilágy-Somlyó),Transylvania,Romania,47.23069,22.80389,,364,284,,394,,284,364/94,,,,,142.4,142.4,ca.,"Mu, S: 14, 4",S,4,,Mult,14,,,,,18,,142.4,142.4,ca.,,,,,,,,,,,,,0,0, ,,,,+,142.4,142.4,Also AV chain and 28 pieces of jewellery. Unable to locate details of this find in the Sasianu ref.,Multiples assumed to be 2x.,,,"Sasianu 1980, number24, XII"
769,1555,Poitou,Poitou province,Deux-Sèvres,France,46.083333,0.166667,,395,364,,410,,364,395/410,1865,1865,,,142.4,142.4,ca.,"Mu, S: 2, 28",S,28,,Mult,2,,,,,30,,142.4,142.4,ca.,,,,,,,,,,,,,0,0, ,,,,,142.4,142.4,,2 AV Multiples assumed to be 2x. RN ref. must be incorrect.,,,"Revue Numismatique 1866; Bland Bland 1997, table 4, number 50"
1447,1322,Bonn,Bonn,,Germany,50.737434,7.098211,,348,284,,363,,284,348/63,,,,,195.8,195.8,ca. +,"Mu, S: 6, 32",S,32,,Mult,6,,,,,38,,195.8,195.8,ca. +,,,,,,,,,,,,,0,0, ,,,,,195.8,195.8,,6 AV Multiples assumed to be 2x; 32 AV solidi Terminus post quem ca. 353,,,"Bland 1997, table 4, number 68"
196,1206,Rome III,Rome (Palatine Hill),,Italy,41.888333,12.486944,,275,,,296,,,275/96,1902,1902,,,23.8,23.8,+,"Mult, A: 1, 2",A,2,,Mult,1,,,,,3,,22.6,22.6,+,"Mult, a: 1, 16",a,16,,Mult,1,,,,,17,,18.11,18.11,+,,,,,40.71,40.71,,"1 AV mult. of Carin/Magnia Urbica (12.5g: RIC V, II, Rome 334); 1 AR mult. of Valerian II (18.11g, RIC V, I, Rome, 12). Bahrfeldt ref. does not appear to be correct (journal checked)",,,"Brenot & Loriot 1992, 271, number 48"
205,618,Ajaccio,Ajaccio,Corse-du-Sud,France,41.919229,8.738635,,260,,,275,,,260/75,1958,1958,,,833.4,833.4, ,"Mult, A: 13, 74",A,74,,Mult,13,,,,,87,,833.4,833.4, ,,,,,,,,,,,,,0,0, ,,,,+,833.4,833.4,"also 2 rings, metal not recorded","13 Multiples of Claudius II; inventory is incomplete. Coins run from Philip to Aurelian. Total weight taken from Huvelin & Loriot 1980, 77",found in the Mediterranean in a sunken vessel off the coast of Ajaccio,,"Huvelin & Loriot 1980; Brenot & Loriot 1992, 270, number 42"
719,973,Sault-Brénaz,Sault-Brénaz,Ain,France,45.857091,5.406099,,260,54,,275,,54/68,260/75,1862,1862,,,98.5,190.5,ca. +,"mult, A: 2, 6",A,6,,Mult,2,,,,,8,,63.6,63.6, ,"D, a: 485",a,,,D,,,,,,485,,133.8,1515.2, ,1,26,26,ca.,223.4,1604.8,"1 AV ring: set with a blue onyx. 26g. AR ring: set with cornelian. No weight given. AR ring: set with an onyx. No weight given 2 AR rings: with inscriptions 'AVE/EVA'. No weights given.  AR/AV fragments: of a torc, some rings and bracelets (AR), and an AR ingot. No weights given.","Aureii are of Vitellius, Vespasian, Vespasian for Titus, Severus for Julia Domna, Severus for Caracalla, Gallienus. Multiples: Gallienus for Salonina (5.20g) and Gallienus with an inserted denarius (21g). 1 sesterces",found 300m from a river in an AE vase,,"Blanchet 1900, 579; TAF V/1, 33, number 41; Brenot & Loriot 1992, 268, number 28; Guest 1994"
15,1245,Aboukir,Aboukir,,Egypt,31.311424,30.060334,,296,222,?,318,,222/35?,296/318,1901,1902,,1901-2,1029.2,9339.2,+,"Mults, A: c. 20, c. 600",A,600,ca.,Mult,20,ca.,,,,620,ca.,1029.2,1029.2,+,,,,,,,,,,,,,0,0, ,,1029.2,1029.2,,2058.4,2058.4,"1. AV ingot: stamped 3 times, one overstamping: 'ACVEPPSIG'; '…]ANTIUS[…'; 'EPMOY/ERMU'. Length: 18.28 cm weight: 345.05g 2. AV ingot: with stamp 'BENIGNU/SCOXIT'. Length: 18.7 cm; weight: 342.98g. 3. AV ingot: 3 stamps, 'ACVEPPSIG'; '….]S/[…. ]/[PRO]BAVIT'; 3. 'EPMOY/ERMU'. weight: 341.17g. 4-18. AV ingots: details unknown (immediately melted down). Total AV weight: 1029.2g.","Accounts vary, but two concur with the information that 18 ingots were found, alongside a large number of gold coins; Mowat suggested that ca. 600 aurei were found and ca. 20 gold medallions, with emperors represented from Alexander Severus to Constantius I (Chlorus). The second EGW calculation given is based on an assumption that the rest of the gold ingots were also heavier than a Roman pound at ca. 342g, and that there were ca. 600 coins (taking into account the comment that these were 'mostly Diocletian'); the multiplies have been exluded from the estimate.",,1-2. The British Museum (C&M 1904.5.30.1-2); 3. Private colln.?,"Mowat 1902, 281f; Kent & Painter 1977, numbers 533 & 534; Baratte 1976, number 8; Painter pers. comm."
749,1350,Ljubljana III,Ljubljana (Emona),,Slovenia,46.047522,14.545544,,348,342,,363,,342/50,348/63,1956,1956,,,206.3,206.3,+,"Mults., S?: 22 (13)",S,,,Mult,,,,,,22,,206.34,206.34,+,,,,,,,,,,,,,0,0, ,,,,,206.34,206.34,,"13 coins known, all of which were Multiples 11 x 3 solidi Multiples & 2 x 2 solidi Multiples weights noted: 13.44g, 13.46g, 13.45g, 13.45g, 13.52g, 13.35g, 13.45g, 13.35g, 13.43g, 13.67g, 13.53g, 9.06g, 9.13g; other coins assumed to be solidi. Terminus post quem ca. 350/53",,dispersed,"Mirnik 1981, number 291; Duncan 1993; FMRSl I.155/39; Bland 1997, table 4, number 88"
1194,499,Rouen I,Rouen,Seine-Maritime,France,49.442995,1.100055,,238,96,,260,,96/117,238/60,1864,1864,,,3.83,3.83,ca. +,Q: 1,Q,1,,,,,,,,1,,2.43,2.43,ca.,Unknown,Unknown,40,,,,,,,,40,,0,0, ,?,1.4,1.4,,3.83,3.83,Also AV jewellery: Gallo-roman necklace with pearls and emeralds; 4 AV rings; some plain bracelets and rings weight: ca. 1.4g.,Quinarius of Severus Alexander mounted in ring. 40 AR?/sesterces Quinarius weights are not well known enough from extant e.g's; based on a projected weight of half the aureus (of ca. 4.86g).,,Louvre (quinarius ring: Acca. number: Bj1136),"TAF IV, 40, number 63; Brenot & Loriot 1992, 265, number 2; Guest 1994"
555,1552,Parma II,Parma (Via Mazzini),,Italy,44.801693,10.326963,,395,323,,410,,323-61,395/410,,,,,1180.2,1180.2, ,"S, A: 264, 1",A,1,,S,264,,,,,265,,1180.2,1180.2, ,,,,,,,,,,,,,0,0, ,,,,,1180.2,1180.2,,Includes 1 festaureus of Honorius at Mediolanum  (ca. 5.40g).,,,"Ungaro 1985, 56, 71; Iluk 1987b, tab. 10; Kent 1994; Bland 1997, table 4, number 145"
438,1640,Fano,Fano,,Italy,43.840244,13.021171,,425,379,,456,,379-95,425/56,,,,,70.4,70.8, ,"S, Se, T: 1, 2, 40",S,1,,Se,2,,T,40,,43,,68.95,68.95, ,"Si, hSi: 8, 18",hSi,18,,Si,8,,,,,26,,22,28.5, ,,,,,90.95,97.45,,latest coin of Honoria,,,"Kent 1994; Bland 1997, table 4, number 150"
120,1799,Cotrone,Cotrone,Catanzaro,Italy,39.08132,17.126621,,527,408,,564,,408/50,527/64,,,,,158.2,453.2, ,"S, Se, T: 103",S,,,Se,,,T,,,103,,158.2,453.2, ,,,,,,,,,,,,,0,0, ,,,,,158.2,453.2,,uncertain proportions of denominations. Latest coins Justinian (ca. 550),,,"Mosser 1935, 23; Ungaro 1985, 55, 71; Kent 1994; Bland 1997, table 4, number 177"
94,1915,Racalmuto,Racalmuto,Sicily,Italy,37.408797,13.73259,,641,474,,667,,474/91,641/667,,,,,735.3,735.3, ,"S, Se, T: 142, 17, 44",S,142,,Se,17,,T,44,,203,,735.35,735.35, ,,,,,,,,,,,,,0,0, ,,,,,735.35,735.35,,includes one ‘half tremissis’ of Phocas. Latest coin Constans II (ca. 645),,,"Kent 1994; Bland 1997, table 4, number 179"
20,1924,Awarta,Awarta,Nablus,Jordan,32.161444,35.286392,,668,602,,685,,602/10,668/85,,,,,97.5,97.5, ,"S, Se, T: 16, 9, 4",S,16,,Se,9,,T,4,,29,,97.45,97.45, ,,,,,,,,,,,,,0,0, ,,,,,97.45,97.45,,weight actual,found in a lamp,,Dajani 1951
102,1905,Athens,Athens,,Greece,37.983715,23.72931,,641,602,,667,,602/10,641/667,1876,1877,,1876-77,888.2,888.2, ,"S, Se, T: 177, 20, 37",S,177,,Se,20,,T,37,,234,,888.15,888.15, ,,,,,,,,,,,,,0,0, ,,,,,888.15,888.15,,Phocas to Constans II,found in 3 lots during excavs. of the sanctuary at Asclepius,"National Museum, Athens","Mosser 1935, 7"
353,1864,Sadovets I,Sadovets,,Bulgaria,43.307636,24.351221,,582,527,,609,,527/65,582/609,1934,1934,,,191,191, ,"S, Se, T: 37, 1, 16",S,37,,Se,1,,T,16,,54,,190.9,190.9, ,,,,,,,,,,,,,0,0, ,50,,,,190.9,190.9,,Justinian I to Maurice Tiberius,,,"Mosser 1935, 74-5; CH VI (1981), 53, number 216"
18,1759,Horva Rimmon,Horva Rimmon (aka Horbat Remalya),,Israel,31.935162,35.339366,,491,364,,526,,364/75,491/526,,,,,90.6,90.6, ,"S, Se, T: 4, 11, 32",S,4,,Se,11,,T,32,,47,,90.55,90.55, ,,,,,,,,,,,,,0,0, ,,,,,90.55,90.55,,latest coins Anastasius (ca. 510),ancient site,,Kent 1994
307,1861,Narona,Narona (Split),Metkovic district,Croatia,43.052914,17.649497,,582,491,,609,,491/518,582/609,1901,1901,,,262.7,262.7,ca. +,"S, Se, T: 55, ?, 12",S,55,,Se,,,T,12,,67,+,262.75,262.75,ca. +,,,,,,,,,,,,,0,0, ,,,,+,262.75,262.75,also jewellery.,assumed for weight that the unaccounted for 12 coins are all solidi;  Justin I to Maurice Tiberius. Total weight of preserved coins: 245.78g.,discovered on a spot once on the southern side of the Roman forum,"Archaeological Museum, Split (64); private colln. (2)","Mosser 1935, 57-8; Mirnik 1981, number 352; Duncan 1993; Demo 1994"
97,1926,Campobello di Mazara,Campobello di Mazara,Sicily,Italy,37.632447,12.748709,,668,395,,685,,395/411,668/85,,,,,526,526,ca.,"S, Se, T: c.150; 100, 8, 42?",S,100,,Se,8,,T,42,?,150,ca.,526,526,ca.,,,,,,,,,,,,,0,0, ,,,,,526,526,,"36 identified from Arcadius to Constantine IV. weight calca. based on Kent’s proportions (1994, ciii), i.e. 5.5% sem, 28% trem.",,,"Mosser 1935, 15-6; Kent 1994"
652,1829,Sommacampagna,Sommacampagna,Verona,Italy,45.40282,10.84281,,527,491,,564,,491/518,527/64,,,,,8.9,8.9,+,"S, Se: ?, ?",S,,,Se,,,,,,,,0,0,ca.,,,,,,,,,,,,,0,0, ,,,,,0,0,,of Anastasius and Justinian. Probably Ostrogothic imitations,,,"Notizie degli scavi di Antichita 1877, 120; Gorini 1992, 194, number 22"
59,1610,Chemtou,Chemtou,,Tunisia,36.499203,8.572039,,411,364,,425,,364/75,411/25,,,,,7327.3,7327.3, ,"S, Se: 1646, 1",S,1646,,Se,1,,,,,1647,,7326.95,7326.95, ,M: 1,M,1,,,,,,,,1,,4.54,4.54, ,,,,,7331.49,7331.49,,Coins run from Val. I to Honorius. Terminus post quem ca. 423.,ruin,,"International Numismatic Newsletter 23, 1993, 3; Kent 1994; Bland 1997, table 4, number 186"
82,1891,Medjid Eüsü,Medjid Eüsü,Adana Vilayet,Turkey,37.002868,35.313222,,610,578,,640,,578/82,610/640,,,,,23.8,23.8, ,"S, Se: 5, 1",S,5,,Se,1,,,,,6,,23.75,23.75, ,,,,,,,,,,,,,0,0, ,,,,,23.75,23.75,,Tiberius II to Heraclius,,,"Mosser 1935, 53"
69,1923,Arkesine,Arkesine,Amorgós,Greece,36.786708,25.80295,,668,668,,685,,668/80,668/85,1900,1900,ca.,,249.4,249.4, ,"S, Se: 52, 8",S,52,,Se,8,,,,,60,,249.4,249.4, ,,,,,,,,,,,,,0,0, ,,,,,249.4,249.4,,Constantine IV and Heraclius w. Tiberius,,,"Mosser 1935, 6"
92,1825,Seville,Seville,,Spain,37.38264,-5.996295,,527,395,,564,,395,527/64,1972,1972,,,298.7,298.7,ca.,"S, Se: 57, 20",S,57,,Se,20,,,,,77,,298.65,298.65,ca.,,,,,,,,,,,,,0,0, ,,,,,298.65,298.65,,"41 solidi identified of Arcadius and Honorius;  barbarous solidi and tremisses of Anastasius to Justinian (Visigothic imitations), out of a total of 77. Terminus post quem ca. 550. numbers above taken from CHII, 1978, number328. The hoard is repeated in CHV (1980), where numbers are 54 sols., 23 trems.",,,"CH II 1976, 80 number 328; V 1980, 62 number 211; VI 1981, 50 number 202; Bost et al. 1983, 169 number 157; Bost et al. 1992, 60, number 157; Kent 1994; Bland 1997, table 4, number 139"
172,1824,Sessa Aurunca,Sessa Aurunca,,Italy,41.238335,13.932598,,527,527,,564,,527/65,527/64,,,,,6,6, ,"S, T: 1, 1",S,1,,T,1,,,,,2,,5.95,5.95, ,,,,,,,,,,,,,0,0, ,"ca. 2,000",,,,5.95,5.95,,"Justinian I, Athalric to Baduila (541-52). Terminus post quem ca. 553.",,,"Mosser 1935, 78"
746,1690,Izenave,Izenave,,France,46.038829,5.525964,,457,430,,490,,430/40,457/90,,,,,7.6,7.6, ,"S, T: 1, 2",S,1,,T,2,,,,,3,,7.45,7.45, ,Si: 2,Si,2,,,,,,,,2,,2.54,2.54, ,,,,,9.99,9.99,,earliest Theodosius II; latest Majorian (ca. 460),,,"TAF V, 37 number 51; Kent 1994; Bland 1997, table 4, number 57"
1116,1848,Munningen,Munningen,Bayrisch-Schwaben,Germany,48.919343,10.602161,,565,578,,581,,578/84,565/81,1906,1906,,,16.5,16.5, ,"S, T: 1, 8",S,1,,T,8,,,,,9,,16.45,16.45, ,,,,,,,,,,,,,0,0, ,,,,,16.45,16.45,,solidi of Tiberius II; barbarian trems. of Justin II & Justinian,,,"Mosser 1935, 56-7"
861,1821,San Lorenzo di Pusteria,San Lorenzo di Pusteria (Sebato),,Italy,46.782292,11.904311,,527,457,,564,,457/74,527/64,,,,,65.5,65.5, ,"S, T: 11, 11",S,11,,T,11,,,,,22,,65.45,65.45, ,,,,,,,,,,,,,0,0, ,,,,,65.45,65.45,,latest coins Justinian. All tremisses from Anastasius to Justinian Ostrogothica. Terminus post quem ca. 540,,,"Ungaro 1985, 71; Gorini 1992, 193, number 21; Kent 1994; Bland 1997, table 4, number 174"
371,1490,Chapipi,Chapipi (Grado),,Spain,43.388548,-6.06973,,395,378,,410,,378/88,395/410,1934,1934,,,52,52,+,"S, T: 11, 2",S,11,,T,2,,,,,13,,51.95,51.95,+,,,,,,,,,,,,,0,0, ,,,,+,51.95,51.95,Also includes a ring.,13 coins examined of 14 originally. Latest coin Constantine III at Lyon (407/11). Terminus post quem ca. 408.,found in the grotto of Chapipi,,"Lafaurie 1958, pl. X; Bost et al. 1983, 158-9; Bost et al. 1992, 51, number89; Kent 1994; Bland 1997, table 4, number 131"
286,1843,Ghertche-Cunar,Ghertche-Cunar,,Bulgaria,42.733883,25.48583,ca.,565,578,,581,?,578/82,565/81?,1927,1927,,,53.5,53.5, ,"S, T: 11, 3",S,11,,T,3,,,,,14,,53.45,53.45, ,,,,,,,,,,,,,0,0, ,,,,,53.45,53.45,,one solidi of Tiberius II known; rest dispersed,,,"Mosser 1935, 35"
1666,1858,Escharen,Escharen,,Netherlands,51.733333,5.75,,582,474,,609,,474/91,582/609,1897,1897,,,129.9,129.9,+,"S, T: 11, 54",S,11,,T,54,,,,,65,,129.95,129.95, ,,,,,,,,,,,,,0,0, ,,,,,129.95,129.95,,"5+ Zeno, Justin I, Justinian, Maurice; also Merovingian solidi and tremisses (Terminus post quem ca. 595)",,,"Mosser 1935, 31; Kent 1994; Bland 1997, table 4, number 45"
666,1772,Padenghe sul Garda,"Padenghe sul Garda, Desenzano",Brescio,Italy,45.508032,10.516493,,491,457,,526,,457/74,491/526,,,,,57.9,57.9, ,"S, T: 12, 3",S,12,,T,3,,,,,15,,57.9,57.9, ,,,,,,,,,,,,,0,0, ,,,,,57.9,57.9,,9 identified.From Leo to Justin I,,,"Mosser 1935, 63; Iluk 1987b, Tab. 10; Gorini 1992, 193, number 19; Kent 1994"
632,1554,Pavia,Pavia,Certosa,Italy,45.256517,9.145835,,395,395,,410,,395,395/410,,,,,63.9,63.9, ,"S, T: 13, 4",S,13,,T,4,,,,,17,,63.85,63.85, ,,,,,,,,,,,,,0,0, ,,,,,63.85,63.85,,all Honorius; latest ‘COB’ solidi at Ravenna (ca. 410). Also known as the Carpignano hoard,,,"Bolin 1926, 182; Lafaurie 1958a, 328; Ungaro 1985, 71; Kent 1994; Bland 1997, table 4, number 148"
984,1805,Frickingen,Frickingen,Württemberg,Germany,47.814055,9.273097,,527,457,,564,,457/74,527/64,1897,1897,,,77.3,77.3, ,"S, T: 15, 7",S,15,,T,7,,,,,22,,77.25,77.25, ,,,,,,,,,,,,,0,0, ,,,,,77.25,77.25,,latest coins Justinian (ca. 550),,,"Bolin 1926, 179; Mosser 1935, 34; FMRD II: 4175; Kent 1994; Bland 1997, table 4, number 81"
109,1612,Elche,Elche (La Alcudia),,Spain,38.235442,-0.691581,,411,395,,425,,395,411/25,1947,1947,,,10.4,10.4,+,"S, T: 2, 1",S,2,,T,1,,,,,3,,10.4,10.4, ,,,,,,,,,,,,,0,0, ,,,,+,10.4,10.4,also 1 AV ingot and jewels.,Latest coins Honorius (ca. 420). weight calca. currently excludes ingot,,,"Bost et al. 1983, 156 number 172; Bost et al. 1992, 48, number72; Kent 1994; Bland 1997, table 4, number 135"
638,1841,Brkac,"Brkac, Motovun",Motovun district,Croatia,45.330918,13.800007,,565,565,,581,,565/82,565/81,1896,1896,ca.,,11.9,11.9, ,"S, T: 2, 2",S,2,,T,2,,,,,4,,11.9,11.9, ,,,,,,,,,,,,,0,0, ,,,,,11.9,11.9,,all coins Justin II,unknown (Demo 1994),Società istriana di archeologia e storia patria (SIASP),"Gorini 1992, 194, number 23; Demo 1994 [Q]"
422,1811,Kaprije,Island of Kaprije,Sibenik,Croatia,43.688155,15.710728,,527,491,,564,,491/518,527/64,1901,1901,,,6,6,+,"S, T: 2+",S,,,T,,,,,,2,+,5.95,5.95,+,,,,,,,,,,,,,0,0, ,,,,,5.95,5.95,,"earliest Theodoric in name of Anastasius; latest coin tremissis of Justinian, ca. 527",,"former colln. of Diameter Savo, Split; dispersed","Mosser 1935, 45; Mirnik 1981, 80 number 339; Duncan 1993; Demo 1994"
354,1865,Sadovets II,Sadovets,,Bulgaria,43.307636,24.351221,,582,527,,609,,527/65,582/609,,,,,99.5,99.5, ,"S, T: 21, 4",S,21,,T,4,,,,,25,,99.45,99.45, ,,,,,,,,,,,,,0,0, ,,,,,99.45,99.45,,Justinian I to Maurice Tiberius,found during excavs.,,"CH VI (1981), 52, number 213"
167,1791,Benevento,Benevento,,Italy,41.129761,14.782626,,527,474,,564,,474/91,527/64,,,,,175.9,175.9, ,"S, T: 23, 49",S,23,,T,49,,,,,72,,175.85,175.85, ,,,,,,,,,,,,,0,0, ,,,,,175.85,175.85,,latest coins Justinian (ca. 550),,,"Mosser 1935, 10; Kent 1994; Bland 1997, table 4, number 175"
259,1870,Yambol I,Yambol,,Bulgaria,42.48377,26.51076,,582,527,,609,,527/65,582/609,1975,1975,,,39,68.5, ,"S, T: 24 (?, 13+)",S,24,?,T,13,+,,,,37,ca. +,38.95,68.45, ,,,,,,,,,,,,,0,0, ,,,,,38.95,68.45,,Justinian I to Maurice. At least 13 were trems.,,"Regional Museum, Yambol","Numismatica XIII (1979), 2; CH VI (1981), 52, number 214"
520,1808,Hajdučka Vodenica,Hajdučka Vodenica,,Serbia,44.557371,22.006692,,527,474,,564,,474/91,527/64,,,,,130.6,130.6, ,"S, T: 29, 1",S,29,,T,1,,,,,30,,130.55,130.55, ,,,,,,,,,,,,,0,0, ,,,,,130.55,130.55,,latest coins Justinian (ca. 550+).,a fort on the Danubian limes,,"Kondić 1984; Vasic 1992, 294; Kent 1994; Bland 1997, table 4, number 108"
853,1860,Merligen,Merligen,,Switzerland,46.695916,7.738268,,582,425,,609,,425/55,582/609,,,,,14.8,14.8, ,"S, T: 3, 1",S,3,,T,1,,,,,4,,14.85,14.85, ,,,,,,,,,,,,,0,0, ,,,,,14.85,14.85,,"latest coin Phocas; intrusive? If so, latest coin Leo I ‘VICTORIA’ type (465/67)",,,"Lafaurie & Morrisson 1987, 86; Kent 1994; Bland 1997, table 4, number 83"
659,1826,Sisak I,Sisak (Siscia),,Croatia,45.485077,16.373116,,527,424,,564,,424/30,527/64,,,,,17.9,17.9, ,"S, T: 3, 3",S,3,,T,3,,,,,6,,17.85,17.85, ,,,,,,,,,,,,,0,0, ,,,,,17.85,17.85,,earliest Theodosius II ‘GOT’ type. Latest coins imitations of Justinian (ca. 550),,,"Mirnik 1981, number 346; Kent 1994; Bland 1997, table 4, number 93"
355,1866,Sadovets III,Sadovets,,Bulgaria,43.307636,24.351221,,582,491,,609,,491/527,582/609,1934,1934,,,290.8,290.8, ,"S, T: 35, 90",S,35,,T,90,,,,,125,,290.75,290.75, ,,,,,,,,,,,,,0,0, ,,,,,290.75,290.75,,Anastasius to Maurice Tiberius,found during excavs.,,"CH VI (1981), 52, number 212"
847,1755,Gourdon,Gourdon (commune),Burgundy,France,46.641248,4.44844,,491,457,,526,,457/74,491/526,1845,1845,,,262.2,262.2,+,"S, T: 36, 68",S,36,,T,68,,,,,104,,262.2,262.2, ,,,,,,,,,,,,,0,0, ,,,,+,262.2,262.2,Also 1 gold plate (check).,"“mostly barbarous” Kent 1994, xcviii. Latest coin Justin I (ca. 525).",,,"Blanchet 1900, number 295; Bolin 1926, 172; Mosser 1935, 36; Lafaurie 1958; Kent 1994; Bland 1997, table 4, number 62"
1843,1904,Wieuwerd,Wieuwerd,Friesland,Netherlands,53.108889,5.69,,610,491,,640,,491/518,610/640,1866,1866,,,167.7,167.7,+,"S, T: 37, 2",S,37,,T,2,,,,,39,,167.65,167.65, ,,,,,,,,,,,,,0,0, ,,,,+,167.65,167.65,Also 10 items of jewellery.,Anastasius to Heraclius; also includes Merovingian pieces and barbarian imitations.,,M. le Chevalier Hooft van Iddekinge,"Mosser 1935, 98"
260,1871,Yambol II,Yambol,,Bulgaria,42.48377,26.51076,,582,527,,609,,527/65,582/609,1977,1977,,,178.1,178.1, ,"S, T: 39, 3",S,39,,T,3,,,,,42,,178.05,178.05, ,,,,,,,,,,,,,0,0, ,,,,,178.05,178.05,,Justinian I to Maurice.,,"Regional Museum, Yambol","CH VII (1982), 235, number 346"
701,1470,Aquileia I,Aquileia,,Italy,45.768301,13.368921,,395,364,,410,,364,395/410,1933,1933,,,19.3,19.3, ,"S, T: 4, 1",S,4,,T,1,,,,,5,,19.3,19.3, ,,,,,,,,,,,,,0,0, ,,,,,19.3,19.3,,,,,"Brusin 1934, 146; Bland 1997, table 4, number 142"
392,1782,Trogir,Trogir,,Croatia,43.516387,16.250189,,491,424,,526,,424/30,491/526,,,,,19.3,19.3, ,"S, T: 4, 1",S,4,,T,1,,,,,5,,19.3,19.3, ,,,,,,,,,,,,,0,0, ,,,,,19.3,19.3,,earliest Theodosius II at Thessalonica ‘GLOR ORVI-S TERRAR’ type. Latest Anastasius ‘VICTORIA AVCVSTORVM’ (ca. 500),,,"Duncan 1993, 78; Kent 1994; Bland 1997, table 4, number 91"
1379,1740,Bellignies,Bellignies (Houdain),,France,50.323763,3.756669,,491,407,,526,,407/11,491/526,1807,1807,,,20.8,20.8, ,"S, T: 4, 2",S,4,,T,2,,,,,6,,20.8,20.8, ,,,,,,,,,,,,,0,0, ,,,,,20.8,20.8,,latest coin two imitations of Anastasius,,,"TAF II, 23; Kent 1994; Bland 1997, table 4, number 60"
634,1729,Torriano,"Torriano, Certosa di Pavia",,Italy,45.26107,9.118353,,457,474,,490,,474,457/90,,,,,22.3,22.3,+,"S, T: 4, 3",S,4,,T,3,,,,,7,,22.3,22.3, ,,,,,,,,,,,,,0,0, ,,,,+,22.3,22.3,includes jewellery. The following summary is  provided by Peroni: 1. AR fibula: with a complex geometric design and set with 4 garnets. weight: not given. 2. AR fibula: as 1. weight: not given. 3. AR/AE bracelet: plain and in two sections. weight: not given.,!,circumstances of discovery are not known,,"Kent 1994; Bland 1997, table 4, number 163"
773,1804,Finero,Finero,Domodossola,Italy,46.106655,8.536301,,527,491,,564,,491/27,527/64,1888,1888,,,63.1,63.1,+,"S, T: 4, 8",S,4,,T,8,,,,,12,,29.8,29.8, ,Si?: 250,Si,250,,,,,,,,250,,500,500, ,,,,+,529.8,529.8,Also included AR jewellery,from Anastasius to Justinian. The AR are all Theoderic (493-526).,,,"Mosser 1935, 33"
61,1737,Alanya,Alanya,,Turkey,36.560139,32.002121,,491,474,,526,,474/91,491/526,,,,,209.2,209.2, ,"S, T: 46, 3",S,46,,T,3,,,,,49,,209.2,209.2, ,,,,,,,,,,,,,0,0, ,,,,,209.2,209.2,,latest coin Anastasius (Terminus post quem ca. 500).  All coins in mint state.,,,"Mosser 1935, 2; Morrisson et al. 1989 [Q], 144; Kent 1994; Bland 1997, table 4, number 212"
231,1925,Belova,Belova,,Bulgaria,42.213426,24.018076,,668,582,,685,,582/610,668/85,,,,,23.8,23.8, ,"S, T: 5, 1",S,5,,T,1,,,,,6,,23.75,23.75, ,,,,,,,,,,,,,0,0, ,,,,,23.75,23.75,,Maurice & Constantine IV,"found in the ruins of an old fortress ‘Levké’, near Belova",Belova Library,"Archaeologia 5, 1978; CH VI (1981), 54, number 219"
83,1876,Aydin Vilayet,Aydin Vilayet,,Turkey,37.003008,35.312991,,610,491,,640,,491/518,610/640,,,,,259.6,259.6, ,"S, T: 58, 1",S,58,,T,1,,,,,59,,259.6,259.6, ,,,,,,,,,,,,,0,0, ,,,,,259.6,259.6,,from Anastasius to Heraclius Constantine,,,"Mosser 1935, 8"
156,1853,Thessaloniki,Thessaloniki,,Greece,40.63935,22.944606,,565,527,,581,,527/65,565/81,1948,1948,,,399.4,399.4, ,"S, T: 82, 23",S,82,,T,23,,,,,105,,399.4,399.4, ,,,,,,,,,,,,,0,0, ,,,,,399.4,399.4,,from Justinian I to Tiberius II; all full weight solidi,,Athens Museum,"Oeconomides-Caramessini & Touratsoglou 1979; CH VI (1981), 50, number 204"
507,1854,Viviers,Viviers,Ardèche,France,44.480268,4.691056,,565,395,,581,,395/411,565/81,1926,1926,,,1845.2,4444.1,ca.,"S, T: c.1000 (117, 2)",S,,ca.,T,,,,,,1000,ca.,1845.2,4444.1,ca.,,,,,,,,,,,,,0,0, ,,,,,1845.2,4444.1,,"latest coins Justin II. Includes Ostrogothic, Visigothic and Frankish copies. Mosser gives the latest coins incorrectly as Justinian. Terminus post quem ca. 575",,,"Mosser 1935, 95-6; TAF V.1, 93 number 7; Lafaurie & Morrisson 1987, 77-80; Kent 1994; Bland 1997, table 4, number 65"
744,1823,Sekulitsa,Sekulitsa (Sekulica),,Serbia,46.016858,19.783475,,527,474,,564,,474/91,527/64,,,,,3951.1,10562, ,"S, T: c.2400; 119, 40",S,2400,ca.,T,119,,,,,2519,ca.,3951.1,10562, ,,,,,,,,,,,,,0,0, ,,,,,3951.1,10562,,159 identified. Latest coins Justinian (ca. 550),,,"Duncan 1993, 65; Kent 1994; Bland 1997, table 4, number 107"
942,1788,Alise-Sainte-Reine,Alise-Sainte-Reine,Côte d’Or,France,47.536144,4.490418,,527,457,,564,,457/74,527/64,1804,1804,,,453,1332.1,ca.,"S, T: c.300",S,,,T,,,,,,300,ca.,453,1332.1,ca.,,,,,,,,,,,,,0,0, ,,,,,453,1332.1,,uncertain proportions of denominations from Leo to Theodebert. Latest coins Theodebert (ca. 550),,,"RN 1908, 291; Bolin 1926, 172; Mosser 1935, 3; Kent 1994; Bland 1997, table 4, number 63"
42,1883,Hennchir-Sidi,Hennchir-Sidi,Amor-Bou-Hadjela,Tunisia,35.394745,10.049557,,610,602,,640,,602/10,610/640,1908,1908,?,1908?,122.2,210.7,ca.,"S, T: c.50",S,,,T,,,,,,50,ca.,122.2,210.7,ca.,,,,,,,,,,,,,0,0, ,,,,,122.2,210.7,,4 trems. & 16 solidi known,,"Musée Alaoui au Bardo, Tunis (20)","Mosser 1935, 39"
619,1635,Cognin-les-Gorges,Cognin-les-Gorges (Malleval) (Nant),,France,45.171556,5.412197,,425,375,ca.,456,?,ca. 375?,425/56?,,,,,17.8,17.8,+,S: ?,S,,,,,,,,,,,17.8,17.8,+,,,,,,,,,,,,,0,0, ,,,,,17.8,17.8,,"“many ‘Valentinian’, Gratian, Honorius, ‘Theodosius’. Only from the Eastern Empire” Kent 1994, xciv",,,"Vallier 1882 [Q], 537; Blanchet 1900, number 205; Bolin 1926, 172; TAF V.2, 43 number 7; Kent 1994"
127,1689,Iglesias,Iglesias,Sardinia,Italy,39.310221,8.536398,,457,408,,490,,408/50,457/90,,,,,13.4,13.4,+,S: ?,S,,,,,,,,,,,13.35,13.35,+,,,,,,,,,,,,,0,0, ,,,,,13.35,13.35,,"Theodosius II, Valentinian III, Leo I (Terminus post quem ca. 470)",,,"Ungaro 1985, 73; Kent 1994; Bland 1997, table 4, number 161"
58,1896,Rhodes,Rhodes,Isle of Rhodes,Greece,36.434854,28.217522,,610,602,,640,,602/10,610/640,1932,1932,,,0,0,ca.,S: ?,S,,,,,,,,,,,0,0,ca.,,,,,,,,,,,,,0,0, ,,,,,0,0,,content uncertain,,,"Rassegna Numismatica 1933, 27; Mosser 1935, 72"
105,1617,Monte de Meio,Monte de Meio,Beja,Portugal,38.059689,-7.903263,,411,383,,425,,383,411/25,1891,1891,ca.,,4.6,4.6,+,S: ?,S,,,,,,,,,,,4.45,4.45,+,Si: ?,Si,,,,,,,,,,,2,2,ca. +,?,,,,6.45,6.45,,"‘many coins of gold, silver, and bronze, almost all of Honorius’ (Bland forthcoming)",,,"Numisma 1983, 162; Bost et al. 1992, 54, number115; Bland 1997, table 4, number 124"
384,1415,Gizhgit,"Gizhgit, Elburski",Kabardino-Balkar,Russia,43.459835,43.010225,,364,364,,394,,364/88,364/94,1930,1930,,,4.5,4.5, ,S: 1,S,1,,,,,,,,1,,4.45,4.45, ,,,,,,,,,,,,,0,0, ,,,,+,4.45,4.45,found with ‘articles of gold’.,solidus of Gratian at Trier,found in the valley of the upper Baksan,,"Kropotkin 1962, 193, number 247"
86,1560,Rencovo,Rencovo,,Portugal,37.166767,-8.900434,,395,310,ca.,410,,ca. 310?,395/410,,,,,4.5,4.5, ,S: 1,S,1,,,,,,,,1,,4.45,4.45, ,,,,,,,,,,,,,0,0, ,?,,,,4.45,4.45,,"1 solidus of Honorius; AE of Constantine, Gratian, Arcadius, Honorius",,,"Bost et al. 1983, 165 number 135; Bost et al. 1992, 57, number135; Kent 1994; Bland 1997, table 4, number 123"
262,1630,Bosnek,Bosnek,,Bulgaria,42.49474,23.180577,,425,450,ca.,456,,ca. 450,425/56,,,,,4.5,4.5, ,S: 1,S,1,,,,,,,,1,,4.45,4.45, ,,,,,,,,,,,,,0,0, ,ca. 1000,,,,4.45,4.45,,solidus dates to reign of Theodosius II,,,"CH VI 1981, 39 number 196; Kent 1994; Bland 1997, table 4, number 111"
1974,1642,Gantofta,"Gantofta, Fjärestad",Skåne,Sweden,55.983302,12.799961,,425,425,,456,,425/57,425/56,,,,,4.5,4.5,+,S: 1,S,1,,,,,,,,1,,4.45,4.45, ,,,,,,,,,,,,,0,0, ,,,,+,4.45,4.45,"found with five AV bracteates, an AV ring and two AV fragments","Theodosius II, with loop.",,,"Fagerlie 1967, 180, number 24"
1976,1667,Tjürkö,"Tjürkö, Augerum",Blekinge,Sweden,56.112521,15.630383,,425,425,,456,,425/57,425/56,1817,1817,,,4.5,4.5,+,S: 1,S,1,,,,,,,,1,,4.45,4.45, ,,,,,,,,,,,,,0,0, ,,,,+,4.45,4.45,found with four AV bracteates.,Theodosius II with loop.,,,"Janse 1922, 203; Fagerlie 1967, 179-80, number 20"
1979,1681,Eketorp,"Eketorp, Gräsgårde",Öland,Sweden,56.311794,16.510894,,457,457,,490,,457/91,457/90,1845,1845,,,4.48,4.48,+,S: 1,S,1,,,,,,,,1,,4.48,4.48, ,,,,,,,,,,,,,0,0, ,,,,+,4.48,4.48,Also AV finger ring and AV spiral.,"weight actual. Leo I. ‘Pierced but refilled’ (Fagerlie 1967, 48, number 462).",,,"Fagerlie 1967, 186, number 67"
2025,1693,Jusarve,"Jusarve, Gothem",Gotland,Sweden,57.580658,18.71145,,457,457,,490,,457/91,457/90,1875,1875,,,4.3,4.3,+,S: 1,S,1,,,,,,,,1,,4.3,4.3, ,,,,,,,,,,,,,0,0, ,,,,+,4.3,4.3,Also AR spiral.,weight actual. Zenumber,,,"Fagerlie 1967, 200, number 151"
845,1698,Malyye Kopani,Malyye Kopani,Golopristanski,Ukraine,46.63546,32.616785,ca.,457,457,,490,,457/91,457/90,1894,1894,,,4.5,4.5,+,S: 1,S,1,,,,,,,,1,,4.45,4.45, ,,,,,,,,,,,,,0,0, ,,,,+,4.45,4.45,"also a gold pendant set with amber, and 2 AV ear-rings with pyramid shaped pendants, and a round AV platelet",Leo I,grave find,,"Kropotkin 1962, 445-6, number 1720"
2042,1709,Rangsta,"Rangsta, Hedesunda",Gästrikland,Sweden,60.399998,16.983333,,457,457,,490,,457/91,457/90,,,,,4,4,+,S: 1,S,1,,,,,,,,1,,4,4, ,,,,,,,,,,,,,0,0, ,,,,+,4,4,found with 23 AV objects.,pierced. weight actual. Leo I.,,,"Janse 1922, 227; Fagerlie 1967, 177, number 3"
1985,1714,Rönnerum,"Rönnerum, Högsrum",Öland,Sweden,56.75,16.566666,,457,457,,490,,457/91,457/90,1931,1931,,,4.45,4.45,+,S: 1,S,1,,,,,,,,1,,4.45,4.45, ,,,,,,,,,,,,,0,0, ,,,,+,4.45,4.45,"Also AV spiral, found in same place 70 years previous.",weight actual. Leo I.,found on the site of a prehistoric house foundation,,"Fagerlie 1967, 187, number 75"
1992,1717,Salomonstorp,"Salomonstorp, Köping",Öland,Sweden,56.885983,16.729909,,457,457,,490,,457/91,457/90,1883,1883,,,4.39,4.39,+,S: 1,S,1,,,,,,,,1,,4.39,4.39, ,,,,,,,,,,,,,0,0, ,,,,+,4.39,4.39,Also AV spiral.,weight actual.,,,"Fagerlie 1967, 188, number 81"
2032,1722,Slättäng,"Slättäng, Fristad",Västergötland,Sweden,58.566667,13.816667,,457,457,,490,,457/91,457/90,1878,1878,,,4.4,4.4,+,S: 1,S,1,,,,,,,,1,,4.4,4.4, ,,,,,,,,,,,,,0,0, ,,,,+,4.4,4.4,"‘Found with various gold objects’ (Fagerlie 1967, 178).",weight actual. Pierced. Zenumber,,,"Fagerlie 1967, 178, number 13"
2044,1725,Svartvik,"Svartvik, Böda",Öland,Sweden,61.367809,17.06124,,457,457,,490,,457/91,457/90,1900,1900,,,4.45,4.45,+,S: 1,S,1,,,,,,,,1,,4.45,4.45, ,,,,,,,,,,,,,0,0, ,,,,+,4.45,4.45,Also AV ring,weight actual. Leo I.,,,"Fagerlie 1967, 183, number 49"
2007,1836,Vestringen,"Vestringen, Etelhem",Gotland,Sweden,57.32604,18.51424,,527,527,,564,,527/65,527/64,,,,,4.5,4.5,+,S: 1,S,1,,,,,,,,1,,4.46,4.46, ,,,,,,,,,,,,,0,0, ,,,,+,4.46,4.46,Also AV finger ring.,weight actual. pierced. Justinian I.,found in a field.,,"Fagerlie 1967, 199, number 140"
305,1332,Dol,Dol,,Serbia,43.031869,22.326724,,348,337,,363,,337,348/63,,,,,4.8,4.8, ,S: 1,S,1,,,,,,,,1,,4.45,4.45, ,"Arg, Si: 1, 1",Arg,1,,Si,1,,,,,2,,5.2,5.2, ,,,,+,9.65,9.65,Also jewellery.,"1 AR argenteus, 1 siliqua  Terminus post quem ca. 350",,,"Mirnik 1981; number 273 ; Bland 1997, table 4, number 99"
2000,1702,Norrkvie,"Norrkvie, Grötlingbo",Gotland,Sweden,57.116782,18.333279,,457,138,,490,,138/61,457/90,,,,,4.6,4.6, ,S: 1,S,1,,,,,,,,1,,4.42,4.42, ,D: 1,D,1,,,,,,,,1,,2.75,2.75, ,,,,,7.17,7.17,,Solidus weight actual. Antoninus Pius and Zenumber,,,"Fagerlie 1967, 200, number 153a"
2015,1770,Norrbys,"Norrbys, Vänge",Gotland,Sweden,57.45588,18.52378,,491,100,?,526,,2nd. ca. AD?,491/526,1844,1844,,,4.4,4.4,+,S: 1,S,1,,,,,,,,1,,4.42,4.42, ,D: 1,D,1,,,,,,,,1,,0,0, ,,,,,4.42,4.42,,weight actual: Anastasius.,,,"Fagerlie 1967, 204, number 177"
2002,1715,Rosarve II,"Rosarve II, Havdem",Gotland,Sweden,57.158678,18.315003,,457,100,?,490,,2nd. ca. AD?,457/90,,,,,7.01,7.01,+,S: 1,S,1,,,,,,,,1,,4.26,4.26, ,D: 15,D,15,,,,,,,,15,,41.25,41.25,ca.,,,,+,45.51,45.51,Also ‘bronze objects’.,weight actual.  Terminus post quem ca. 474,found in a gravel pit,,"Fagerlie 1967, 201, 156b; Bland 1997, table 4, number 252"
1516,1480,Bowerchalke,Bowerchalke,Wiltshire,Great Britain,51.004237,-1.976194,,395,364,,410,,364/95,395/410,1998,2002,,1998-2002,32.2,33.3, ,S: 1,S,1,,,,,,,,1,,4.45,4.45, ,"M, Si: 4, 57",M,4,,Si,57,,,,,61,,111.8,128.3, ,,20.32,20.32,,136.57,153.07,also 4 AV rings (Total weight: 20.32g),Solidus weight: 4.49g; mil. total weight: 14.62g,,,CHRB XII (forthcoming)
1591,1478,Bishops Cannings,Bishops Cannings (Blagon Hill),Wiltshire,Great Britain,51.378325,-1.947318,,395,364,,410,,364,395/410,,,,,141.8,155.1,+,S: 1,S,1,,,,,,,,1,,4.45,4.45, ,"M, Si: 7, 1560",M,7,,Si,1560,,,,,1567,,2061.8,2262.5, ,,,,+,2066.25,2266.95,Also 1 AV ring: set with a pearl; 3 AR finger rings; 1 AR bracelet (damaged); 2 AR necklace clasps; 1 AR plaque: set with carnelian; beads and bowl fragments There are also a number of other non-precious metal items which are considered to be associated.,57% clipped.,evidence of a Roman building nearby,,"Robinson & Swanton 1993; Kent 1994; CHRB X, 426-62; Bland 1997, table 4, number 13"
1894,1425,Little Smeaton,Little Smeaton,North Yorkshire,Great Britain,53.643825,-1.201632,,364,348,,394,,348/64,364/94,1997,1997,,,30.2,30.2, ,S: 1,S,1,,,,,,,,1,,4.52,4.52, ,"M, Si: 8, 175",M,8,,Si,175,,,,,183,,385.9,385.9, ,,,,,390.42,390.42,,solidi weight: 4.52g; mils.: 35.89g,,,CHRB XII (forthcoming)
618,1440,San Genesio,San Genesio,,Italy,45.170344,7.89745,,364,337,,394,,337,364/94,,,,,91,91, ,S: 1,S,1,,,,,,,,1,,4.45,4.45, ,"M, Si: 98, 396",M,98,,Si,396,,,,,494,,1300.6,1300.6, ,,,,,1305.05,1305.05,,"Mils.: 8 Multiples, 4 heavy mils., 86 light mils. 8 Multiples 1/24th, ca. 12.5g each (cf. Kent 1994, 14). Latest coin ca. 385.",,,"Atti dell’Acca. Naz. dei Lincei 1954; Bland 1997, table 4, number 141"
1757,1481,Burgate,Burgate,Suffolk,Great Britain,52.337379,1.05196,,395,383,,410,,383,395/410,1991,1991,,,24.1,30.1,+,S: 1,S,1,,,,,,,,1,,4.45,4.45, ,"Si, hSi: 167, 1",hSi,1,,Si,167,,,,,168,,268.4,358.7, ,,25.95,25.95,,298.8,389.1,"Also 3 AR rings, an AR spoon, and 3 AR spoon fragments AR spoon: ligula type. weight: 12.51g. AR ring: with square bezel, engraved bird. weight: 5.92g. AR ring: broken, with oval bezel. weight: 5.02g. AR ring: fragments, as above. weight: 2.5g. (Total: 25.95g).",14% sils. clipped.,,,"CHRB X, 463-7; Bland 1997, table 4, number 14"
1609,1556,Reading I,Reading (Swainston Rd.),Berkshire,Great Britain,51.453157,-0.974757,,395,323,,410,,323/61,395/410,,,,,12.4,20.4, ,S: 1,S,1,,,,,,,,1,,4.45,4.45, ,Si: 120,Si,120,,,,,,,,120,,120,239.7, ,,,,,124.45,244.15,,,,,"VCH Berks., I, 212; Oxiensia 1954; Bland 1997, table 4, number 21"
1718,1580,Sturmer,Sturmer,Essex,Great Britain,52.06771,0.476079,,395,337,,410,,337/61,395/410,1793,1793,,,6.4,8.3, ,S: 1,S,1,,,,,,,,1,,4.45,4.45, ,Si: 29,Si,29,,,,,,,,29,,29,57.7, ,,,,,33.45,62.15,,uncertain number clipped,found in an urn covered by a Roman tile,,"VCH Essex III, 59; Archer 1979, 59, number51; Kent 1994; Bland 1997, table 4, number 22"
1548,1469,Allington/North Stoneham,Allington/North Stoneham,Hampshire,Great Britain,51.153832,-1.70488,,395,360,,410,,360/63,395/410,1869,1869,,,10.4,11.4, ,S: 1,S,1,,,,,,,,1,,4.45,4.45, ,Si: 53,Si,53,,,,,,,,53,,89.7,104.7, ,,,,,94.15,109.15,,One coin listed as having no legend; assumed to be clipped,"found by a labourer sinking a ditch on a farm, who ‘turned up a Roman vessel, which was found to contain coins’ (Jennings 1869). Only the base survived",,"VCH Hampshire I, 343; Jennings 1869; Kent 1994; Bland 1997, table 4, number 11; Robertson 2000, number 1536"
1923,1597,Wilton,Wilton (Guisborough),Yorkshire,Great Britain,54.235284,-0.687658,,395,364,,410,,364/78,395/410,1856,1856,,,9.7,15, ,S: 1,S,1,,,,,,,,1,,4.45,4.45, ,Si: 79,Si,79,,,,,,,,79,,79,157.7, ,,,,,83.45,162.15,,also known as the Guisborough hoard Extent of clipping not known,,"Dorman Museum, Middlesborough","Archer 1979, 63, 25/60a; Kent 1994; Bland 1997, table 4, number 18"
150,1444,Santo Tomé de Négrelos,Santa Tomé de Négrelos,,Portugal,40.373989,-7.905898,,364,364,,394,,364,364/94,1946,1946,,,4.6,4.6,+,S: 1+,S,1,+,,,,,,,1,,4.45,4.45,+,Si: ?,Si,,,,,,,,,,,2,2,ca. +,?,,,,6.45,6.45,,"‘1 or more gold coins of Theodosius together with bronze and silver of Constantius I, Constantine I, Constantine II, Constans, Constantius II and Theodosius’ (Bland 1997). Terminus post quem ca. 390",found on Monte da Mourhina,,"Numisma 1983, 167; Bost et al. 1992, 58, number 143; Bland 1997, table 4, number 117"
1741,1407,Eidinghausen,Eidinghausen,,Germany,52.23328,8.800091,,364,364,,394,,364,364/94,,,,,44.5,44.5, ,S: 10,S,10,,,,,,,,10,,44.5,44.5, ,,,,,,,,,,,,,0,0, ,,,,,44.5,44.5,,Terminus post quem ca. 392,,,"FMRD VI/6.6097; Guest 1994; Bland 1997, table 4, number 222"
140,1495,Conimbriga IV,Conimbriga,,Portugal,40.099114,-8.4933,,395,323,,410,,323/61,395/410,,,,,44.5,44.5, ,S: 10,S,10,,,,,,,,10,,44.5,44.5, ,,,,,,,,,,,,,0,0, ,,,,,44.5,44.5,,Terminus post quem ca. 400.,found during excavs. by Virgilio Correia,,"Bost et al. 1983, 153 number 58; Bost et al. 1992, 58, number46; Kent 1994; Bland 1997, table 4, number 118"
128,1720,Ses Salines,Ses Salines (Majorca),,Spain,39.338779,3.051014,,457,388,tpq,490,,388/402+,457/90,,,,,44.5,44.5, ,S: 10,S,10,,,,,,,,10,,44.5,44.5, ,,,,,,,,,,,,,0,0, ,,,,,44.5,44.5,,latest coin Zeno (ca. 480),found in the necropolis of Sa Carrotxa,,"Bost et al. 1992, 68 number 216; Kent 1994; Bland 1997, table 4, number 138"
23,1878,Beth-Shan,Beth Shean-Scythopolis,,Palestine,32.497142,35.497311,,610,582,,640,,582/602,610/640,1913,1913,,,44.5,44.5, ,S: 10,S,10,,,,,,,,10,,44.5,44.5, ,,,,,,,,,,,,,0,0, ,,,,,44.5,44.5,,Maurice Tiberius to Heraclius I,,,"Mosser 1935, 10"
1734,1347,Lengerich I,Lengerich,,Germany,52.182298,7.862641,,348,96,,363,,96/117,348/63,1847,1847,,,200.9,297.9, ,S: 10,S,10,,,,,,,,10,,44.5,44.5, ,"D, M, Si: 1147, 1, 70",D,1147,,M,1,,Si,70,,1218,,2348,3804.8, ,,,,+,2392.5,3849.3,2 AV bracelets: no weights given. 4 AV rings: no weights given.  4 AV studs: no weights given. 1 AV onion brooch: insribed ‘ROMAN...ERME’. AR plate: no weight given.,Denarii run from Trajan to Septimius Severus. Also 1 AV necklace with pendantoniniani No weight given. Terminus post quem ca. 350+,"found by a farmer on a hill underneath three large stones. The AV coins and the jewellery were found under the first two stones, and the silver coins and the plate under the third.",,"FMRD VII.I.1033-5; Bland 1997, table 4, number 215"
1588,1592,Venlo,Venlo,Limburg,Netherlands,51.370489,6.172386,,395,364,,410,,364-75,395/410,1675,1675,ca.,,44.5,44.5,+,S: 10+,S,10,+,,,,,,,10,+,44.5,44.5, ,,,,,,,,,,,,,0,0, ,,,,,44.5,44.5,,Latest coins Honorius’ ‘CONCORDIA AVGG’: Terminus post quem ca. 406. Also inclues barbarian copy of a solidus of Theodosius I,,dispersed,"Van der Vin 1988; Kent 1994; Bland 1997, table 4, number 43"
1244,1379,Ahm-Machtum,Ahm-Machtum,,Luxembourg,49.65972,6.43107,,364,348,,394,,348/64,364/94,1958,1958,,,445,445, ,S: 100,S,100,,,,,,,,100,,445,445, ,,,,,,,,,,,,,0,0, ,,,,,445,445,,,,,"FMRL I: 145; Guest 1994; Bland 1997, table 4, number 40"
996,1629,Bína,Bína,,Czechoslovakia,47.922075,18.642298,,425,395,,456,,395,425/56,,,,,480.6,480.6, ,S: 108,S,108,,,,,,,,108,,480.6,480.6, ,,,,,,,,,,,,,0,0, ,,,,,480.6,480.6,,includes two imitations. Latest official issue is Honoria. Terminus post quem ca. 445,,,"Kent 1994; Bland 1997, table 4, number 291"
1587,1333,Duisburg/Grossenbaum,Duisburg/Grossenbaum,,Germany,51.368569,6.773744,,348,337,,363,,337,348/63,,,,,49,49, ,S: 11,S,11,,,,,,,,11,,48.95,48.95, ,,,,,,,,,,,,,0,0, ,,,,,48.95,48.95,,Terminus post quem ca. 353,,,"RIC VIII; Bland 1997, table 4, number 217"
1318,1537,Mainz T. IV,Mainz T. (Greebenstrasse),,Germany,49.992862,8.247253,,395,364,,410,,364-75,395/410,,,,,50,50, ,S: 11,S,11,,,,,,,,11,,48.95,48.95, ,,,,,,,,,,,,,0,0, ,,,,,48.95,48.95,,earliest Valentinian I including ‘RESTITVTOR’ type; latest Constantine III (ca. 408),,,"FMRD IV, number 1171; Guest 1994; Kent 1994; Bland 1997, table 4, number 75"
9,1545,North Saqqara,North Saqqara,,Egypt,29.850006,31.216689,,395,323,,410,,323/61,395/410,1967,1967,,,50,50, ,S: 11,S,11,,,,,,,,11,,48.95,48.95, ,,,,,,,,,,,,,0,0, ,,,,,48.95,48.95,,Constantius II to Arcadius,found during excavations 'in a small wooden box in the wall of one of the Christian buildings',,"Ford 2000, 351"
1169,1669,Witow,Witow,,Poland,49.32106,19.826568,,425,408,,456,,408/30,425/56,,,,,49,49, ,S: 11,S,11,,,,,,,,11,,48.95,48.95, ,,,,,,,,,,,,,0,0, ,,,,,48.95,48.95,,Four identified. Latest coin Val. III. Terminus post quem ca. 445,,,"Kent 1994; Bland 1997, table 4, number 279"
1988,1705,Präststommen,"Präststommen, Bredsätra",,Sweden,56.842621,16.792678,,457,402,,490,,402,457/90,1814,1814,,,49,49,+,S: 11,S,11,,,,,,,,11,,48.95,48.95, ,,,,,,,,,,,,,0,0, ,,,,+,48.95,48.95,also 2 AV and 2 AR rings.,Terminus post quem ca. 475,found in a field under a flat stone,,"Janse 1922, 9; Fagerlie 1967, 184, number 50; Bland 1997, table 4, number 255"
2017,1771,Övede,"Övede, Eskelhem",Gotland,Sweden,57.490476,18.230381,,491,383,,526,,383,491/526,1860,1860,,,49,49,+,S: 11,S,11,,,,,,,,11,,48.95,48.95, ,,,,,,,,,,,,,0,0, ,,,,+,48.95,48.95,Also 1 AV spiral and 1 AV button.,Terminus post quem ca. 518. Honorius to Anastasius,found by a stone as part of an ancient stone circle.,"National Museum, Stockholm","Mosser 1935, 31; Fagerlie 1967, 198, number 135; Bland 1997, table 4, number 269"
1955,1416,Gudme I,Gudme,Seeland,Denmark,55.150021,10.705566,,364,330,,394,,330/48,364/94,1885,1982,ca.,1885 onwards; ca. 1982 onwards,90.3,114.9, ,S: 11,S,11,,,,,,,,11,,48.95,48.95, ,Si: c.310,Si,310,ca.,,,,,,,310,,621.2,990.8,ca.,,,,,670.15,1039.75,,,"solidi came to light from 1885, but were all found in roughly the same place. All the siliquae were found after 1982, with most (284) excavated in Separt 1985 by the museums where they now reside",Danish National Museum; Fyns Stifts Museum,Kromann 1988
62,1611,Chercel II,Chercel,,Algeria,36.606069,2.197393,,411,395,,425,,395,411/25,,,,,489.5,489.5, ,S: 110,S,110,,,,,,,,110,,489.5,489.5, ,,,,,,,,,,,,,0,0, ,,,,,489.5,489.5,,"26 identifed (Honorius); “mostly slack” Kent 1994, xciv. “Includes jewels” (ibid.). Terminus post quem ca. 420 (ibid.)",,,"Morrisson 1987, 337; Kent 1994; Bland 1997, table 4, number 181"
118,1868,Turkey I,Turkey (uncertain),,Turkey,38.963745,35.243322,ca.,582,527,,609,,527/65,582/609,,,,,498.4,498.4, ,S: 112,S,112,,,,,,,,112,,498.4,498.4, ,,,,,,,,,,,,,0,0, ,,,,,498.4,498.4,,Justinian I to Phocas,,,"Mosser 1935, 92"
53,1736,Ain Meddah,"Ain Meddah, Lafayette",Sétif,Algeria,36.325676,5.107271,,491,395,,526,,395,491/526,,,,,529.6,529.6, ,S: 119,S,119,,,,,,,,119,,529.55,529.55, ,,,,,,,,,,,,,0,0, ,,,,,529.55,529.55,,Latest Anastasius’ first ‘PERP’ issues,,,"Morrisson 1987, 336; Kent 1994; Bland 1997, table 4, number 184"
607,1501,Estivals,Estivals,,France,45.027756,1.461324,,395,388,tpq,410,,388/402+,395/410,1872,1872,,,53.4,53.4, ,S: 12,S,12,,,,,,,,12,,53.4,53.4, ,,,,,,,,,,,,,0,0, ,,,,,53.4,53.4,,latest coin Honorius. Terminus post quem ca. 400.,,,"Bost et al. 1981, 16; TAF I, 103 number 2; Kent 1994; Bland 1997, table 4, number 51"
91,1796,Castellana,Castellana,Sicily,Italy,37.329316,14.86814,,527,408,,564,,408/50,527/64,,,,,53.4,53.4, ,S: 12,S,12,,,,,,,,12,,53.4,53.4, ,,,,,,,,,,,,,0,0, ,,,,,53.4,53.4,,latest coins Justinian (ca. 550),,,"Iluk 1987b, Tab. 10; Kent 1994"
1458,1598,Wittering,Wittering (Cakeham),Sussex,Great Britain,50.775744,-0.888083,,395,364,,410,,364,395/410,,,,,53.4,53.4,+,S: 12+,S,12,+,,,,,,,12,+,53.4,53.4,+,,,,,,,,,,,,,0,0, ,,,,,53.4,53.4,,dubious,,,"JBAA 1847; Bland 1997, table 4, number 6"
1994,1688,Hjärpestad II,Hjärpestad,Öland,Sweden,56.900177,16.799827,,457,383,,490,,383,457/90,,,,,58.5,58.5,+,S: 13,S,13,,,,,,,,13,,58.5,58.5, ,,,,,,,,,,,,,0,0, ,,,,+,58.5,58.5,Also various AV and AR objects.,Terminus post quem ca. 474.,,,"Fagerlie 1967, 189, number 86; Bland 1997, table 4, number 250"
1852,1817,Midlum,Midlum,,Netherlands,53.181995,5.448822,,527,450,,564,,450/57,527/64,,,,,57.9,57.9, ,S: 13,S,13,,,,,,,,13,,57.85,57.85, ,,,,,,,,,,,,,0,0, ,,,,,57.85,57.85,,latest coin Justinian I. Terminus post quem ca. 540,,,"Lafaurie & Morrisson 1987, 88; FMRN I, 104-5 number 160; Kent 1994; Bland 1997, table 4, number 214"
767,1833,Trento,Trento,,Italy,46.069692,11.121089,,527,,?,564,,-,527/64,,,,,57.9,57.9, ,S: 13,S,13,,,,,,,,13,,57.85,57.85, ,,,,,,,,,,,,,0,0, ,,,,,57.85,57.85,,including seven late coins of Justinian,,,"Archivo Trentino 15 (1900), 271; Gorini 1992, 193, number 20"
506,1299,Starcevo,Starcevo,,Romania,44.463889,21.401109,,318,69,,330,,69-193/222; 284,318/30,,,,,90.4,107.8,ca.,S: 13,S,13,,,,,,,,13,,57.85,57.85, ,D: 254,D,254,,,,,,,,254,,488.7,750.8, ,,,,,546.55,808.65,,denarii run from Vitellius to Septimius Severus,,,"Bland 1997, number 294"
949,1423,Kirileny,Kirileny,Synzhereiski,Moldova,47.639786,28.146511,,364,367,,394,,367/83,364/94,1952,1952,,,57.9,57.9,+,S: 13+,S,13,+,,,,,,,13,+,57.85,57.85,+,,,,,,,,,,,,,0,0, ,,,,,57.85,57.85,,"Terminus post quem pre-395, according to Kent.",,some in Kishinev Local History Museum (13),"Kropotkin 1962, 378-81, number 1347; Kent 1994; Bland 1997, table 4, number 288"
1961,1694,Kåsbygård,"Kåsbygård, Nørre",Bornholm,Denmark,55.215052,14.73775,,457,402,,490,,402,457/90,1839,1839,,,62.3,62.3,+,S: 14,S,14,,,,,,,,14,,62.3,62.3, ,,,,,,,,,,,,,0,0, ,,,,+,62.3,62.3,found with several AV items (no more info. given in NNA).,one pierced (Terminus post quem ca. 480).,,,"NNÅ 1944, 58; Fagerlie 1967, 208, number 203; Bland 1997, table 4, number 236"
2,1831,Tôd,Tôd,,Egypt,25.581339,32.532589,,527,364,,564,?,364/95,527/64?,,,,,62.3,62.3, ,S: 14,S,14,,,,,,,,14,,62.3,62.3, ,,,,,,,,,,,,,0,0, ,,,,,62.3,62.3,,"latest coin Justinian (Terminus post quem ca. 550), but this could be an intruder (Bland 1997)",,,"Kent 1994; Bland 1997, table 4, number 199"
6,1832,Tomet/Sheik Abada,Tomet/Sheik Abada,,Egypt,27.805127,30.874469,,527,364,,564,,364/94,527/64,,,,,62.3,62.3, ,S: 14,S,14,,,,,,,,14,,62.3,62.3, ,,,,,,,,,,,,,0,0, ,,,,,62.3,62.3,,latest coin ca. 550,,,"Kent 1994; Bland 1997, table 4, number 198"
806,1665,Szikáncs,"Szikáncs, Hodmezóvásárhely",,Hungary,46.362879,20.445989,,425,395,,456,,395,425/56,,,,,6403.6,6403.6, ,S: 1439,S,1439,,,,,,,,1439,,6403.55,6403.55, ,,,,,,,,,,,,,0,0, ,,,,,6403.55,6403.55,,Latest coins Valentinian III. Terminus post quem ca. 445,,,"Duncan 1993, 26; Kent 1994"
878,1627,Arçay,Arçay,,France,46.968952,0.014898,,425,408,,456,,408-50,425/56,,,,,66.8,66.8, ,S: 15,S,15,,,,,,,,15,,66.75,66.75, ,,,,,,,,,,,,,0,0, ,,,,,66.75,66.75,,"“15 Visigothic wreath solidi of Valentinian III” Kent 1994, xca. Terminus post quem ca. 450",,,"Kent 1994; Bland 1997, table 4, number 55"
584,1651,Massenzatica,Massenzatica,,Italy,44.928874,12.173717,,425,379,,456,,379-95,425/56,,,,,66.8,66.8, ,S: 15,S,15,,,,,,,,15,,66.75,66.75, ,,,,,,,,,,,,,0,0, ,,,,,66.75,66.75,,latest coin Theodosius II ‘GLORIA ORBIS TERRA’. Terminus post quem ca. 440,,,"Kent 1994; Bland 1997, table 4, number 153"
28,1666,Tripoli,Tripoli,,Libya,32.876182,13.187511,,425,402,,456,,402/50,425/56,,,,,66.8,66.8, ,S: 15,S,15,,,,,,,,15,,66.8,66.8, ,,,,,,,,,,,,,0,0, ,,,,,66.8,66.8,,Terminus post quem ca. 450,,,"Bland 1997, table 4, number 193"
99,1937,Leidischehir,Leidischehir,Konya Vilayet,Turkey,37.867069,32.482282,,685,668,,711,,668/85,685/711,,,,,66.8,66.8, ,S: 15,S,15,,,,,,,,15,,66.75,66.75, ,,,,,,,,,,,,,0,0, ,,,,,66.75,66.75,,part of Tschausch find? (Mosser),,,"Mosser 1935, 49"
168,1879,Chatalja,Chatalja (Çatalca),Constantinople Vilayet,Turkey,41.140427,28.465965,,610,578,,640,,578/82,610/640,,,,,676.4,676.4, ,S: 152,S,152,,,,,,,,152,,676.4,676.4, ,,,,,,,,,,,,,0,0, ,,,,,676.4,676.4,,Tiberius II to Heraclius,,,"Mosser 1935, 18"
1682,1508,Good Easter,Good Easter (Pleshey),Essex,Great Britain,51.804439,0.411262,,395,388,,410,,388/402,395/410,1992,2003,,1992-2003,66.7,66.7,+,S: 16,S,16,,,,,,,,16,,66.75,66.75, ,,,,,,,,,,,,,0,0, ,,,,,66.75,66.75,,includes 1 plated piece (excluded from weight calca. ).,,,"Kent 1994; CHRB X, 480; Bland 1997, table 4, number 28; CHRB XII (forthcoming)"
1236,1369,Saint-Ouen-du-Breuil,Saint-Ouen-du-Breuil,Haute-Normandie,France,49.633131,1.01966,,348,348,,364,,348/64,348/64,1994,1997,,1994 to 1997,78.2,78.2,+,S: 16,S,16,,,,,,,,16,,71.2,71.2, ,Mi: 23,M,23,,,,,,,,23,,104.4,104.4, ,,,,+,175.6,175.6,1-3. AR spoons: weights not given 4. AV ring: weight not given,"found during the excavations of a large Germanic settlement during salvage work. The settlement included a field system and ca. 20 wooden structures of various types, pithouses and stilted storage huts. The objects in the hoard had been placed inside a ceramic beaker.",,"Paris, Cabinet des Médailles","Gonzalez et al. 2001; Guggisberg & Kaufmann-Heinimann 2003, 334, number 10"
1323,1596,Wiesbaden-Kastel,Wiesbaden-Kastel,,Germany,50.013349,8.281297,,395,364,,410,,364-75,395/410,,,,,148.2,161.8, ,S: 16,S,16,,,,,,,,16,,71.2,71.2, ,Si: c.680,Si,680,ca.,,,,,,,680,,1156.3,1359.7,ca.,,,,,1227.5,1430.9,,Latest coins Honorius. Terminus post quem ca. 410.,,,"Kent 1994; Bland 1997, table 4, number 77"
17,1735,Abu ‘Alanda,Abu ‘Alanda,,Jordan,31.900934,35.964792,,491,364,,526,,364/95,491/526,,,,,75.7,75.7, ,S: 17,S,17,,,,,,,,17,,75.65,75.65, ,,,,,,,,,,,,,0,0, ,,,,,75.65,75.65,,"earliest Valentinian I ‘RESTITVTOR’ type. “perhaps two finds” Kent 1994, lxxxviii. Latest Anastasius (ca. 500).",,,"CH III 1977, 69; Kent 1994; Bland 1997, table 4, number 207"
1944,1749,Dalshøj,"Dalshøj, Øster",Bornholm,Denmark,55.006162,14.992827,,491,402,,526,,402,491/526,,,,,75.7,75.7, ,S: 17,S,17,,,,,,,,17,,75.65,75.65, ,,,,,,,,,,,,,0,0, ,,,,,75.65,75.65,,"1 barbarian, ca. 518. Valentinian III to Anastasius.",found during excavations,,"Fagerlie 1967, 209, number 205; NNÅ 1983-4, 116; Bland 1997, table 4, number 240"
1774,1835,Velsen,Velsen,,Netherlands,52.452059,4.630587,,527,518,,564,,518/27,527/64,,,,,75.7,75.7, ,S: 17,S,17,,,,,,,,17,,75.65,75.65, ,,,,,,,,,,,,,0,0, ,,,,,75.65,75.65,,Justin I to Justinian I. Includes 6 barbarian & 6 overstruck.,,,"Bolin 1926, 13; Mosser 1935, 95"
573,1303,Borča,"Borča, Pacevo, Belgrade",,Serbia,44.866667,20.466667,,330,306,ca.,348,,ca. 306,330/48,1879,1879,,,162.4,162.4,ca.,S: 17?,S,17,?,,,,,,,17,?,162.43,162.43,ca.,,,,,,,,,,,,,0,0, ,,,,,162.43,162.43,,"3x 4.5 solidi Multiples; 1x 3 solidi Multiples; 3x 2 solidi Multiples; 8x 1.5 solidi Multiples; 2 solidi Note: Bland has one coin pre-284, and also puts Terminus post quem at ca. 330",,,"Chirila & Gudea 1972, number 4; Duncan 1993; Bland 1997, table 4, number 97"
1526,1547,Obbicht,Obbicht,,Netherlands,51.028023,5.781238,,395,364,,410,,364/75,395/410,1905,1970,ca.,1905-ca. 1970,75.7,75.7,+,S: 17+,S,17,+,,,,,,,17,+,75.65,75.65,+,,,,,,,,,,,,,0,0, ,,,,,75.65,75.65,,earliest Valentinian I including ‘RESTITVTOR’ type,"coins found no more than 250m from the main building of a Roman villa. Coins and other artefacts from the villa imply use until the 5th. century (Van der Vin 1988, 267)","Bonnefanten Museum, Maastricht (11 coins)","Van der Vin 1984; 1988; Kent 1994; Bland 1997, table 4, number 42"
230,1613,Gravisca,Gravisca,Tuscany,Italy,42.202122,11.72,,411,364,,425,,364/75,411/25,,,,,774.3,774.3, ,S: 174,S,174,,,,,,,,174,,774.3,774.3, ,,,,,,,,,,,,,0,0, ,,,,,774.3,774.3,,Terminus post quem ca. 423.,,,"CHII 1976, 77 number 321; IV 1978, number 178; Ungaro 1985, 71; Kent 1994; Bland 1997, table 4, number 144"
36,1726,Takembrit,Takembrit (Siga),,Algeria,35.266295,-1.449895,,457,388,tpq,490,,388/402+,457/90,,,,,80.1,80.1, ,S: 18,S,18,,,,,,,,18,,80.1,80.1, ,,,,,,,,,,,,,0,0, ,,,,,80.1,80.1,,latest coins Zeno  (ca. 480),,,"Morrisson 1987, 335; Kent 1994; Bland 1997, table 4, number 182"
48,1383,Antakya,Antakya (Antioch),,Turkey,36.202808,36.160298,,364,337,,394,,337,364/94,,,,,80.1,80.1,+,S: 18+,S,18,+,,,,,,,18,+,80.1,80.1,+,,,,,,,,,,,,,0,0, ,,,,,80.1,80.1,,See also Antioch,,,"CH VII.330; Bland 1997, table 4, number 210"
52,1751,Djemila II,Djemila,Wilaya de Sétif,Algeria,36.317062,5.735207,,491,430,,526,,430/40,491/526,,,,,801,801, ,S: 180,S,180,,,,,,,,180,,801,801, ,,,,,,,,,,,,,0,0, ,,,,,801,801,,"latest Anastasius “1 PERP, 1 PP” (ca. 495)",,,"Morrisson 1987, 336-7; Kent 1994; Bland 1997, table 4, number 185"
25,1857,Bat Gallim,Bat Gallim,,Israel,32.835542,34.982499,,582,582,,609,,582/610,582/609,1972,1972,,,801,801,+,S: 180+,S,180,+,,,,,,,180,+,801,801,+,,,,,,,,,,,,,0,0, ,,,,,801,801,,‘several hundred’ AV solidi. 91 known; 89 others recorded,,,"Hadoshot Archaeologioth (Jerusalem) number 43, July 1972, 6; CH 1, 60, 66, number 235"
1654,1616,Menzelen,Menzelen,,Germany,51.618052,6.525323,,411,364,,425,,364-75,411/25,,,,,836.6,836.6, ,S: 188,S,188,,,,,,,,188,,836.6,836.6, ,,,,,,,,,,,,,0,0, ,,,,,836.6,836.6,,earliest Valentinian I including ‘VICT’ types. Latest coins Jovinus (411/13),,,"Kent 1994; Bland 1997, table 4, number 78"
201,1713,Rome IX,Rome (Esquiline),,Italy,41.89555,12.496667,,457,408,,490,,408/50,457/90,,,,,84.6,84.6, ,S: 19,S,19,,,,,,,,19,,84.55,84.55, ,,,,,,,,,,,,,0,0, ,,,,,84.55,84.55,,latest coins Zeno (ca. 490),,,"Kent 1994; Bland 1997, table 4, number 169"
657,1766,Milan,Milan,,Italy,45.465454,9.186516,,491,408,,526,,408-50,491/526,,,,,84.6,84.6, ,S: 19,S,19,,,,,,,,19,,84.55,84.55, ,,,,,,,,,,,,,0,0, ,,,,,84.55,84.55,,16 idenified eastern emperors; three western pieces too. Latest coins Anastasius (ca. 500),,,"Iluk 1987b, Tab. 10; Kent 1994; Bland 1997, table 4, number 171"
599,1851,Sermide,Sermide,Mantova,Italy,45.003993,11.299153,,565,565,,581,,565/82,565/81,1960,1960,ca.,,84.6,84.6, ,S: 19,S,19,,,,,,,,19,,84.55,84.55, ,,,,,,,,,,,,,0,0, ,,,,,84.55,84.55,,from Justin II to Tiberius II,found in the Po river,,"CH VI (1981), 51, number 205; Gorini 1992, 194, number 25"
13,1874,Alexandria (Chatby),Alexandria (Chatby),,Egypt,31.201284,29.918766,,610,323,,640,,323/83,610/640,1906,1906,ca.,,850,850, ,S: 191,S,191,,,,,,,,191,,849.9,849.9, ,Unknown,Unknown,1,,,,,,,,1,,0,0, ,,,,,849.9,849.9,,"8 earlier coins of Constantius II to Gratian, but most date 518/641",,,"Ford 2000, 349"
1687,1384,Aylesbury,Aylesbury,Buckinghamshire,Great Britain,51.815606,-0.8084,,364,383,,394,,383/88,364/94,1979,1979,,,8.9,8.9, ,S: 2,S,2,,,,,,,,2,,8.9,8.9, ,,,,,,,,,,,,,0,0, ,,,,,8.9,8.9,,both coins Magnus Maximus,found during construction work on a new housing estate,,"Burnett & Farley 1979; Bland 1997, table 4, number 7; Robertson 2000, number 1477"
643,1421,Kerch I,Kerch,,Ukraine,45.357315,36.46829,,364,330,,394,,330/48,364/94,1904,1904,,,8.9,8.9,+,S: 2,S,2,,,,,,,,2,,8.9,8.9, ,,,,,,,,,,,,,0,0, ,,,,,8.9,8.9,,"Constantius II, Constantius Gallus; AV foil impression of a solidus of Valentinian II",found in a crypt,,"Kropotkin 1966, 34, number 51"
1303,1464,Waldaschaff,Waldaschaff,,Germany,49.975385,9.297754,,364,364,,394,,364,364/94,,,,,8.9,8.9, ,S: 2,S,2,,,,,,,,2,,8.9,8.9, ,,,,,,,,,,,,,0,0, ,,,,,8.9,8.9,,,,,"FMRD I/6.6024; Guest 1994; Bland 1997, table 4, number 220"
1815,1467,Wood Norton,Wood Norton,Norfolk,Great Britain,52.809747,0.985266,,364,364,,394,,364/95,364/94,2001,2001,,,8.97,8.97, ,S: 2,S,2,,,,,,,,2,,8.97,8.97, ,,,,,,,,,,,,,0,0, ,,,,,8.97,8.97,,So. weights: 8.97g (actual),,,CHRB XII (forthcoming)
1341,1529,Lanyon Quoit,"Lanyon Quoit, Penzance",Cornwall,Great Britain,50.1474,-5.59898,,395,364,,410,,364,395/410,,,,,8.9,8.9, ,S: 2,S,2,,,,,,,,2,,8.9,8.9, ,,,,,,,,,,,,,0,0, ,,,,,8.9,8.9,,,,,"Cornish Arch. 1962; Bland 1997, table 4, number 19"
41,1588,Tobna,Tobna,,Algeria,35.349956,5.350182,,395,388,tpq,410,,388/402+,395/410,,,,,8.9,8.9, ,S: 2,S,2,,,,,,,,2,,8.9,8.9, ,,,,,,,,,,,,,0,0, ,,,,,8.9,8.9,,Terminus post quem ca. 402-8.,,,"Kent 1994; Bland 1997, table 4, number 180"
177,1604,Badalona,Badalona,,Spain,41.450151,2.247426,,411,383,,425,,383,411/25,,,,,8.9,8.9, ,S: 2,S,2,,,,,,,,2,,8.9,8.9, ,,,,,,,,,,,,,0,0, ,,,,,8.9,8.9,,,,,"Numisma 1983, 147; Bland 1997, table 4, number 137"
176,1605,Barcelona I,Barcelona,,Spain,41.388373,2.170487,,411,411,,425,,411/25,411/25,,,,,8.9,8.9, ,S: 2,S,2,,,,,,,,2,,8.9,8.9, ,,,,,,,,,,,,,0,0, ,,,,,8.9,8.9,,2 solidi of Honorius,,,"Bost et al. 1992, 41, number17; Bland 1997, table 5, number 389"
179,1608,Braga,Braga,,Portugal,41.545449,-8.426507,,411,383,,425,,383,411/25,,,,,8.9,8.9, ,S: 2,S,2,,,,,,,,2,,8.9,8.9, ,,,,,,,,,,,,,0,0, ,,,,,8.9,8.9,,it is uncertain if these were found together,,,"Numisma 1983, 149; Bost et al. 1992, 42, number28; Bland 1997, table 4, number 124"
